{"generated":"2026-07-11","countries":{"AGL":"AGL","ANT":"Antarctica","AR":"Argentina","AU":"Australia","BB":"Barbados","BE":"Belgium","BER":"BER","BR":"Brazil","BS":"Bahamas","BVI":"BVI","CA":"Canada","CBV":"CBV","CKI":"CKI","CL":"Chile","CN":"China","CO":"Colombia","CR":"Costa Rica","CUW":"CUW","CY":"Cyprus","DEU":"DEU","DK":"Denmark","DO":"Dominican Republic","EC":"Ecuador","EG":"Egypt","ES":"Spain","FJ":"Fiji","FR":"France","GB":"United Kingdom","GR":"Greece","GRD":"GRD","GRL":"GRL","GT":"Guatemala","HAW":"HAW","HK":"Hong Kong","HRV":"HRV","HT":"Haiti","ID":"Indonesia","IE":"Ireland","IN":"India","IT":"Italy","JOR":"JOR","JP":"Japan","KE":"Kenya","KI":"Kiribati","KRS":"KRS","KW":"Kuwait","LBN":"LBN","LK":"Sri Lanka","MG":"Madagascar","MIC":"MIC","MLS":"MLS","MNC":"Monaco","MSI":"MSI","MSR":"MSR","MTS":"MTS","MV":"Maldives","MX":"Mexico","NED":"NED","NFI":"NFI","NI":"Nicaragua","NIP":"NIP","NO":"Norway","NR":"Nauru","NU":"Niue","NZ":"New Zealand","OM":"Oman","PA":"Panama","PAI":"PAI","PE":"Peru","PG":"Papua New Guinea","PH":"Philippines","POF":"POF","PRC":"PRC","PT":"Portugal","RDO":"RDO","RO":"Romania","RU":"Russia","SC":"Seychelles","SE":"Sweden","SLU":"SLU","SOI":"SOI","STH":"STH","SVD":"SVD","SVG":"SVG","TH":"Thailand","TO":"Tonga","TR":"Türkiye","TRT":"TRT","TVI":"TVI","US":"United States","VNM":"VNM","VU":"Vanuatu","WS":"Samoa","WSA":"WSA"},"stations":[{"src":"ioc","id":"blow","name":"Blowing Point","country":"AGL","lat":18.171,"lon":-63.093,"radio":{"name":"Tropik FM Live From St Barth","url":"https://stream10.vestaradio.com/TROPIKFM","kind":"mp3","dist_km":38,"home":"http://www.tropikfm.com/","genre":"local radio"}},{"src":"ioc","id":"angu","name":"Road Bay","country":"AGL","lat":18.197,"lon":-63.093,"radio":{"name":"Tropik FM Live From St Barth","url":"https://stream10.vestaradio.com/TROPIKFM","kind":"mp3","dist_km":40,"home":"http://www.tropikfm.com/","genre":"local radio"}},{"src":"ioc","id":"rothe","name":"Rothera","country":"ANT","lat":-67.567,"lon":-68.133,"radio":{"name":"La Radio de la Gente LU12 AM 680 Rio Gallegos","url":"https://sa.mp3.icecast.magma.edge-access.net/LOA_LaOpinionAustral","kind":"mp3","dist_km":1774,"home":"https://lu12.com.ar/","genre":"news & talk"}},{"src":"ioc","id":"syow","name":"Syowa","country":"ANT","lat":-69.008,"lon":39.57,"radio":{"name":"La Radio de la Gente LU12 AM 680 Rio Gallegos","url":"https://sa.mp3.icecast.magma.edge-access.net/LOA_LaOpinionAustral","kind":"mp3","dist_km":5641,"home":"https://lu12.com.ar/","genre":"news & talk"}},{"src":"ioc","id":"vern","name":"Vernadsky - Faraday","country":"ANT","lat":-65.25,"lon":-64.27,"radio":{"name":"Falklands Radio 530 Stanley","url":"https://streaming.broadcastradio.com:8332/flklnd","kind":"mp3","dist_km":1549,"home":"https://radio.co.fk/","genre":"news & talk"}},{"src":"ioc","id":"plat2","name":"Mar del Plata","country":"AR","lat":-38.0,"lon":-57.539,"radio":{"name":"Planet Music Mar del PLata 101.1","url":"https://strcdn.klm99.com:10991/planetmdp","kind":"mp3","dist_km":2,"home":"https://www.planetmusic.fm/","genre":"news & talk"}},{"src":"ioc","id":"dese","name":"Puerto Deseado","country":"AR","lat":-47.754,"lon":-65.915,"radio":{"name":"Radiovision Comodoro Rivadavia FM 99.5","url":"https://cdn.instream.audio/:9061/stream?in_device_id=wp-5270c502-0535-444e-975b-d49592d1d988","kind":"mp3","dist_km":241,"home":"https://fmradiovision.com/","genre":"news & talk"}},{"src":"ioc","id":"madry","name":"Puerto Madryn","country":"AR","lat":-42.763,"lon":-65.031,"radio":{"name":"LU20 Radio Chubut Trelew AM 580","url":"https://streaming1.locucionar.com/proxy/radiochubut?mp=/stream","kind":"aac","dist_km":60,"home":"https://radiochubut.com/","genre":"news & talk"}},{"src":"ioc","id":"ushu","name":"Ushuaia","country":"AR","lat":-54.817,"lon":-68.217,"radio":{"name":"La Radio de la Gente LU12 AM 680 Rio Gallegos","url":"https://sa.mp3.icecast.magma.edge-access.net/LOA_LaOpinionAustral","kind":"mp3","dist_km":361,"home":"https://lu12.com.ar/","genre":"news & talk"}},{"src":"au","id":"abellpoint","name":"Abellpoint","country":"AU","lat":-20.261,"lon":148.71,"radio":{"name":"Island FM Whitsundays 88.0MHz Airlie Beach Central Queensland","url":"https://onlineradiobox.com/json/au/islandwhitsundays/play?platform=web","kind":"mp3","dist_km":1,"home":"https://islandfm.com.au/","genre":"news & talk"}},{"src":"au","id":"bananabank","name":"Bananabank","country":"AU","lat":-27.541,"lon":153.337,"radio":{"name":"4zzz","url":"https://iheart.4zzz.org.au/4zzz","kind":"mp3","dist_km":31,"home":"https://4zzz.org.au/","genre":"local radio"}},{"src":"ioc","id":"bapj","name":"Battery Point","country":"AU","lat":-42.892,"lon":147.338,"radio":{"name":"7WAY 105.3 Way FM - Launceston, TAS","url":"https://stream2.cnmns.net/wayfm-mp3","kind":"mp3","dist_km":162,"home":"https://www.wayfm.org.au/","genre":"religious"}},{"src":"au","id":"birkdale","name":"Birkdale","country":"AU","lat":-27.475,"lon":153.219,"radio":{"name":"4zzz","url":"https://iheart.4zzz.org.au/4zzz","kind":"mp3","dist_km":19,"home":"https://4zzz.org.au/","genre":"local radio"}},{"src":"au","id":"boigu","name":"Boigu","country":"AU","lat":-9.244,"lon":142.254,"radio":{"name":"Big Hits Radio QLD Townsville North Queensland 20220701","url":"https://onlineradiobox.com/json/au/bighits/play?platform=web","kind":"mp3","dist_km":1220,"home":"https://www.bighitsradio.com.au/BHR/bhr.html","genre":"news & talk"}},{"src":"au","id":"boigultg","name":"Boigultg","country":"AU","lat":-9.229,"lon":142.221,"radio":{"name":"Big Hits Radio QLD Townsville North Queensland 20220701","url":"https://onlineradiobox.com/json/au/bighits/play?platform=web","kind":"mp3","dist_km":1223,"home":"https://www.bighitsradio.com.au/BHR/bhr.html","genre":"news & talk"}},{"src":"au","id":"bowen","name":"Bowen","country":"AU","lat":-20.023,"lon":148.251,"radio":{"name":"Gem FM 91.5MHz Bowen - Gem of the Coral Coast","url":"https://playerservices.streamtheworld.com/api/livestream-redirect/4GEMAAC.aac","kind":"aac","dist_km":3,"home":"https://www.951gemfm.org/","genre":"chill & ambient"}},{"src":"ioc","id":"brom","name":"Broome","country":"AU","lat":-18.001,"lon":122.219,"radio":{"name":"Paddygrooves","url":"https://a12.siar.us/radio/8230/radio.mp3","kind":"mp3","dist_km":1307,"home":"https://paddygrooves.radio/","genre":"local radio"}},{"src":"au","id":"bundaberg","name":"Bundaberg","country":"AU","lat":-24.77,"lon":152.382,"radio":{"name":"Biloela 4BRZ 89.7MHz FM The Breeze Central Queensland","url":"https://s8.yesstreaming.net:17065/BrzCNQ","kind":"aac","dist_km":193,"home":"https://thebreeze.com.au/","genre":"news & talk"}},{"src":"au","id":"burketown","name":"Burketown","country":"AU","lat":-17.717,"lon":139.567,"radio":{"name":"Big Hits Radio QLD Townsville North Queensland 20220701","url":"https://onlineradiobox.com/json/au/bighits/play?platform=web","kind":"mp3","dist_km":782,"home":"https://www.bighitsradio.com.au/BHR/bhr.html","genre":"news & talk"}},{"src":"au","id":"burnett","name":"Burnett","country":"AU","lat":-24.761,"lon":152.4,"radio":{"name":"Biloela 4BRZ 89.7MHz FM The Breeze Central Queensland","url":"https://s8.yesstreaming.net:17065/BrzCNQ","kind":"aac","dist_km":194,"home":"https://thebreeze.com.au/","genre":"news & talk"}},{"src":"ioc","id":"barn","name":"Burnie Tasmania","country":"AU","lat":-41.05,"lon":145.915,"radio":{"name":"7WAY 105.3 Way FM - Launceston, TAS","url":"https://stream2.cnmns.net/wayfm-mp3","kind":"mp3","dist_km":112,"home":"https://www.wayfm.org.au/","genre":"religious"}},{"src":"au","id":"cairns","name":"Cairns","country":"AU","lat":-16.928,"lon":145.779,"radio":{"name":"Big Hits Radio QLD Townsville North Queensland 20220701","url":"https://onlineradiobox.com/json/au/bighits/play?platform=web","kind":"mp3","dist_km":284,"home":"https://www.bighitsradio.com.au/BHR/bhr.html","genre":"news & talk"}},{"src":"ioc","id":"cuvie","name":"Cape Cuvier Wharf","country":"AU","lat":-24.221,"lon":113.397,"radio":{"name":"MyFM Perth","url":"https://halo.streamerr.co/listen/myfmperth/radio.mp3","kind":"mp3","dist_km":891,"home":"https://www.myfmperth.com/","genre":"rock & alternative"}},{"src":"au","id":"capeferg","name":"Capeferg","country":"AU","lat":-19.277,"lon":147.059,"radio":{"name":"Big Hits Radio QLD Townsville North Queensland 20220701","url":"https://onlineradiobox.com/json/au/bighits/play?platform=web","kind":"mp3","dist_km":28,"home":"https://www.bighitsradio.com.au/BHR/bhr.html","genre":"news & talk"}},{"src":"au","id":"cardwell","name":"Cardwell","country":"AU","lat":-18.264,"lon":146.026,"radio":{"name":"Big Hits Radio QLD Townsville North Queensland 20220701","url":"https://onlineradiobox.com/json/au/bighits/play?platform=web","kind":"mp3","dist_km":140,"home":"https://www.bighitsradio.com.au/BHR/bhr.html","genre":"news & talk"}},{"src":"ioc","id":"chrs","name":"Christmas Island","country":"AU","lat":-10.429,"lon":105.669,"radio":{"name":"Mettaswara Dangdut","url":"https://mettaswara.com:8700/d4d","kind":"aac","dist_km":450,"home":"https://mettaswara.com/","genre":"local radio"}},{"src":"au","id":"clumppoint","name":"Clumppoint","country":"AU","lat":-17.951,"lon":146.105,"radio":{"name":"Big Hits Radio QLD Townsville North Queensland 20220701","url":"https://onlineradiobox.com/json/au/bighits/play?platform=web","kind":"mp3","dist_km":166,"home":"https://www.bighitsradio.com.au/BHR/bhr.html","genre":"news & talk"}},{"src":"ioc","id":"cocb","name":"Cocos Island","country":"AU","lat":-12.117,"lon":96.892,"radio":{"name":"Arif Channel","url":"https://ig.idstreamer.com/listen/arif_channel/stream","kind":"aac","dist_km":1184,"home":"https://arifchannellive.blogspot.com/","genre":"pop & hits"}},{"src":"au","id":"cooktown","name":"Cooktown","country":"AU","lat":-15.46,"lon":145.25,"radio":{"name":"Big Hits Radio QLD Townsville North Queensland 20220701","url":"https://onlineradiobox.com/json/au/bighits/play?platform=web","kind":"mp3","dist_km":457,"home":"https://www.bighitsradio.com.au/BHR/bhr.html","genre":"news & talk"}},{"src":"au","id":"coombabahst","name":"Coombabahst","country":"AU","lat":-27.918,"lon":153.344,"radio":{"name":"4zzz","url":"https://iheart.4zzz.org.au/4zzz","kind":"mp3","dist_km":60,"home":"https://4zzz.org.au/","genre":"local radio"}},{"src":"ioc","id":"dcor2","name":"DART ENE of Townsville","country":"AU","lat":-15.711,"lon":158.464,"radio":{"name":"Radio Rythme Bleu","url":"https://webradio.lagoon.nc/rrb","kind":"mp3","dist_km":1112,"home":"https://www.rrb.nc/","genre":"local radio"}},{"src":"ioc","id":"dta4","name":"DART ESE of Hobart","country":"AU","lat":-44.898,"lon":161.841,"radio":{"name":"Radio One 91FM","url":"https://play.r1.co.nz/live","kind":"mp3","dist_km":685,"home":"https://www.r1.co.nz/","genre":"local radio"}},{"src":"ioc","id":"dtas2","name":"DART ESE of Hobart","country":"AU","lat":-46.83,"lon":160.256,"radio":{"name":"Radio One 91FM","url":"https://play.r1.co.nz/live","kind":"mp3","dist_km":794,"home":"https://www.r1.co.nz/","genre":"local radio"}},{"src":"ioc","id":"dcr3","name":"DART NE of Townsville","country":"AU","lat":-14.715,"lon":153.537,"radio":{"name":"Island FM Whitsundays 88.0MHz Airlie Beach Central Queensland","url":"https://onlineradiobox.com/json/au/islandwhitsundays/play?platform=web","kind":"mp3","dist_km":801,"home":"https://islandfm.com.au/","genre":"news & talk"}},{"src":"au","id":"dalbay","name":"Dalbay","country":"AU","lat":-21.25,"lon":149.304,"radio":{"name":"Island FM Whitsundays 88.0MHz Airlie Beach Central Queensland","url":"https://onlineradiobox.com/json/au/islandwhitsundays/play?platform=web","kind":"mp3","dist_km":125,"home":"https://islandfm.com.au/","genre":"news & talk"}},{"src":"ioc","id":"darw","name":"Darwin","country":"AU","lat":-12.472,"lon":130.846,"radio":{"name":"RRI Pro 2 Manado","url":"https://stream-node1.rri.co.id/streaming/40/9040/rrimanadopro2.mp3","kind":"aac","dist_km":1687,"home":"https://rri.co.id/manado","genre":"local radio"}},{"src":"au","id":"donnybrook","name":"Donnybrook","country":"AU","lat":-26.998,"lon":153.071,"radio":{"name":"4zzz","url":"https://iheart.4zzz.org.au/4zzz","kind":"mp3","dist_km":52,"home":"https://4zzz.org.au/","genre":"local radio"}},{"src":"ioc","id":"espe","name":"Esperance","country":"AU","lat":-33.871,"lon":121.895,"radio":{"name":"MyFM Perth","url":"https://halo.streamerr.co/listen/myfmperth/radio.mp3","kind":"mp3","dist_km":602,"home":"https://www.myfmperth.com/","genre":"rock & alternative"}},{"src":"ioc","id":"ffcj","name":"Flying Fish Cove Jetty Christmas Is","country":"AU","lat":-10.429,"lon":105.669,"radio":{"name":"Mettaswara Dangdut","url":"https://mettaswara.com:8700/d4d","kind":"aac","dist_km":450,"home":"https://mettaswara.com/","genre":"local radio"}},{"src":"au","id":"goldcoast","name":"Goldcoast","country":"AU","lat":-27.939,"lon":153.433,"radio":{"name":"4zzz","url":"https://iheart.4zzz.org.au/4zzz","kind":"mp3","dist_km":66,"home":"https://4zzz.org.au/","genre":"local radio"}},{"src":"au","id":"goldenbeach","name":"Goldenbeach","country":"AU","lat":-26.834,"lon":153.12,"radio":{"name":"4zzz","url":"https://iheart.4zzz.org.au/4zzz","kind":"mp3","dist_km":70,"home":"https://4zzz.org.au/","genre":"local radio"}},{"src":"ioc","id":"groo","name":"Groote Eylandt","country":"AU","lat":-13.86,"lon":136.416,"radio":{"name":"Big Hits Radio QLD Townsville North Queensland 20220701","url":"https://onlineradiobox.com/json/au/bighits/play?platform=web","kind":"mp3","dist_km":1260,"home":"https://www.bighitsradio.com.au/BHR/bhr.html","genre":"news & talk"}},{"src":"au","id":"hallsbay","name":"Hallsbay","country":"AU","lat":-26.88,"lon":153.117,"radio":{"name":"4zzz","url":"https://iheart.4zzz.org.au/4zzz","kind":"mp3","dist_km":65,"home":"https://4zzz.org.au/","genre":"local radio"}},{"src":"ioc","id":"hill","name":"Hillarys Harbor","country":"AU","lat":-31.826,"lon":115.739,"radio":{"name":"MyFM Perth","url":"https://halo.streamerr.co/listen/myfmperth/radio.mp3","kind":"mp3","dist_km":17,"home":"https://www.myfmperth.com/","genre":"rock & alternative"}},{"src":"au","id":"iama","name":"Iama","country":"AU","lat":-9.899,"lon":142.766,"radio":{"name":"Big Hits Radio QLD Townsville North Queensland 20220701","url":"https://onlineradiobox.com/json/au/bighits/play?platform=web","kind":"mp3","dist_km":1131,"home":"https://www.bighitsradio.com.au/BHR/bhr.html","genre":"news & talk"}},{"src":"au","id":"karumba","name":"Karumba","country":"AU","lat":-17.488,"lon":140.835,"radio":{"name":"Big Hits Radio QLD Townsville North Queensland 20220701","url":"https://onlineradiobox.com/json/au/bighits/play?platform=web","kind":"mp3","dist_km":660,"home":"https://www.bighitsradio.com.au/BHR/bhr.html","genre":"news & talk"}},{"src":"au","id":"kubin","name":"Kubin","country":"AU","lat":-10.236,"lon":142.214,"radio":{"name":"Big Hits Radio QLD Townsville North Queensland 20220701","url":"https://onlineradiobox.com/json/au/bighits/play?platform=web","kind":"mp3","dist_km":1121,"home":"https://www.bighitsradio.com.au/BHR/bhr.html","genre":"news & talk"}},{"src":"au","id":"lagunaltg","name":"Lagunaltg","country":"AU","lat":-20.602,"lon":148.682,"radio":{"name":"Island FM Whitsundays 88.0MHz Airlie Beach Central Queensland","url":"https://onlineradiobox.com/json/au/islandwhitsundays/play?platform=web","kind":"mp3","dist_km":37,"home":"https://islandfm.com.au/","genre":"news & talk"}},{"src":"ioc","id":"lirf","name":"Lihou Reef","country":"AU","lat":-17.133,"lon":152.145,"radio":{"name":"Island FM Whitsundays 88.0MHz Airlie Beach Central Queensland","url":"https://onlineradiobox.com/json/au/islandwhitsundays/play?platform=web","kind":"mp3","dist_km":502,"home":"https://islandfm.com.au/","genre":"news & talk"}},{"src":"au","id":"lucinda","name":"Lucinda","country":"AU","lat":-18.522,"lon":146.385,"radio":{"name":"Big Hits Radio QLD Townsville North Queensland 20220701","url":"https://onlineradiobox.com/json/au/bighits/play?platform=web","kind":"mp3","dist_km":96,"home":"https://www.bighitsradio.com.au/BHR/bhr.html","genre":"news & talk"}},{"src":"au","id":"lucindatemp","name":"Lucindatemp","country":"AU","lat":-18.523,"lon":146.331,"radio":{"name":"Big Hits Radio QLD Townsville North Queensland 20220701","url":"https://onlineradiobox.com/json/au/bighits/play?platform=web","kind":"mp3","dist_km":99,"home":"https://www.bighitsradio.com.au/BHR/bhr.html","genre":"news & talk"}},{"src":"au","id":"mackaynew","name":"Mackaynew","country":"AU","lat":-21.103,"lon":149.228,"radio":{"name":"Island FM Whitsundays 88.0MHz Airlie Beach Central Queensland","url":"https://onlineradiobox.com/json/au/islandwhitsundays/play?platform=web","kind":"mp3","dist_km":107,"home":"https://islandfm.com.au/","genre":"news & talk"}},{"src":"au","id":"maroochydore","name":"Maroochydore","country":"AU","lat":-26.643,"lon":153.089,"radio":{"name":"4zzz","url":"https://iheart.4zzz.org.au/4zzz","kind":"mp3","dist_km":91,"home":"https://4zzz.org.au/","genre":"local radio"}},{"src":"au","id":"mooloolaba","name":"Mooloolaba","country":"AU","lat":-26.684,"lon":153.133,"radio":{"name":"4zzz","url":"https://iheart.4zzz.org.au/4zzz","kind":"mp3","dist_km":87,"home":"https://4zzz.org.au/","genre":"local radio"}},{"src":"au","id":"morningtonA","name":"MorningtonA","country":"AU","lat":-16.668,"lon":139.171,"radio":{"name":"Big Hits Radio QLD Townsville North Queensland 20220701","url":"https://onlineradiobox.com/json/au/bighits/play?platform=web","kind":"mp3","dist_km":857,"home":"https://www.bighitsradio.com.au/BHR/bhr.html","genre":"news & talk"}},{"src":"au","id":"mossman","name":"Mossman","country":"AU","lat":-16.436,"lon":145.403,"radio":{"name":"Big Hits Radio QLD Townsville North Queensland 20220701","url":"https://onlineradiobox.com/json/au/bighits/play?platform=web","kind":"mp3","dist_km":350,"home":"https://www.bighitsradio.com.au/BHR/bhr.html","genre":"news & talk"}},{"src":"au","id":"mourilyan","name":"Mourilyan","country":"AU","lat":-17.601,"lon":146.124,"radio":{"name":"Big Hits Radio QLD Townsville North Queensland 20220701","url":"https://onlineradiobox.com/json/au/bighits/play?platform=web","kind":"mp3","dist_km":201,"home":"https://www.bighitsradio.com.au/BHR/bhr.html","genre":"news & talk"}},{"src":"au","id":"noosamunna","name":"Noosamunna","country":"AU","lat":-26.0,"lon":153.0,"radio":{"name":"4zzz","url":"https://iheart.4zzz.org.au/4zzz","kind":"mp3","dist_km":162,"home":"https://4zzz.org.au/","genre":"local radio"}},{"src":"au","id":"noosasandstg","name":"Noosasandstg","country":"AU","lat":-26.383,"lon":153.08,"radio":{"name":"4zzz","url":"https://iheart.4zzz.org.au/4zzz","kind":"mp3","dist_km":120,"home":"https://4zzz.org.au/","genre":"local radio"}},{"src":"au","id":"palmcove","name":"Palmcove","country":"AU","lat":-16.74,"lon":145.673,"radio":{"name":"Big Hits Radio QLD Townsville North Queensland 20220701","url":"https://onlineradiobox.com/json/au/bighits/play?platform=web","kind":"mp3","dist_km":308,"home":"https://www.bighitsradio.com.au/BHR/bhr.html","genre":"news & talk"}},{"src":"ioc","id":"pkem","name":"Port Kembla","country":"AU","lat":-34.474,"lon":150.912,"radio":{"name":"Sky News Australia Radio","url":"https://playerservices.streamtheworld.com/api/livestream-redirect/NOVA_SKYNEWSAAC.aac","kind":"aac","dist_km":60,"home":"https://www.skynews.com.au/sky-news-radio","genre":"news & talk"}},{"src":"au","id":"portalma","name":"Portalma","country":"AU","lat":-23.586,"lon":150.862,"radio":{"name":"Biloela 4BRZ 89.7MHz FM The Breeze Central Queensland","url":"https://s8.yesstreaming.net:17065/BrzCNQ","kind":"aac","dist_km":96,"home":"https://thebreeze.com.au/","genre":"news & talk"}},{"src":"au","id":"portdouglas","name":"Portdouglas","country":"AU","lat":-16.483,"lon":145.467,"radio":{"name":"Big Hits Radio QLD Townsville North Queensland 20220701","url":"https://onlineradiobox.com/json/au/bighits/play?platform=web","kind":"mp3","dist_km":343,"home":"https://www.bighitsradio.com.au/BHR/bhr.html","genre":"news & talk"}},{"src":"ioc","id":"porl","name":"Portland","country":"AU","lat":-38.343,"lon":141.613,"radio":{"name":"K-Rock 95.5","url":"https://playerservices.streamtheworld.com/api/livestream-redirect/GEE_KROCKAAC.m3u8","kind":"hls","dist_km":241,"home":"https://www.krock.com.au/","genre":"rock & alternative"}},{"src":"au","id":"poruma","name":"Poruma","country":"AU","lat":-10.049,"lon":143.064,"radio":{"name":"Big Hits Radio QLD Townsville North Queensland 20220701","url":"https://onlineradiobox.com/json/au/bighits/play?platform=web","kind":"mp3","dist_km":1103,"home":"https://www.bighitsradio.com.au/BHR/bhr.html","genre":"news & talk"}},{"src":"au","id":"rabybay","name":"Rabybay","country":"AU","lat":-27.515,"lon":153.28,"radio":{"name":"4zzz","url":"https://iheart.4zzz.org.au/4zzz","kind":"mp3","dist_km":25,"home":"https://4zzz.org.au/","genre":"local radio"}},{"src":"au","id":"rosslyn","name":"Rosslyn","country":"AU","lat":-23.167,"lon":150.792,"radio":{"name":"Biloela 4BRZ 89.7MHz FM The Breeze Central Queensland","url":"https://s8.yesstreaming.net:17065/BrzCNQ","kind":"aac","dist_km":139,"home":"https://thebreeze.com.au/","genre":"news & talk"}},{"src":"au","id":"scarborough","name":"Scarborough","country":"AU","lat":-27.194,"lon":153.109,"radio":{"name":"4zzz","url":"https://iheart.4zzz.org.au/4zzz","kind":"mp3","dist_km":31,"home":"https://4zzz.org.au/","genre":"local radio"}},{"src":"au","id":"seaforth","name":"Seaforth","country":"AU","lat":-20.901,"lon":148.982,"radio":{"name":"Island FM Whitsundays 88.0MHz Airlie Beach Central Queensland","url":"https://onlineradiobox.com/json/au/islandwhitsundays/play?platform=web","kind":"mp3","dist_km":75,"home":"https://islandfm.com.au/","genre":"news & talk"}},{"src":"au","id":"shorncliffe","name":"Shorncliffe","country":"AU","lat":-27.322,"lon":153.087,"radio":{"name":"4zzz","url":"https://iheart.4zzz.org.au/4zzz","kind":"mp3","dist_km":16,"home":"https://4zzz.org.au/","genre":"local radio"}},{"src":"ioc","id":"spjy","name":"Southport Jetty","country":"AU","lat":-43.433,"lon":146.975,"radio":{"name":"7WAY 105.3 Way FM - Launceston, TAS","url":"https://stream2.cnmns.net/wayfm-mp3","kind":"mp3","dist_km":222,"home":"https://www.wayfm.org.au/","genre":"religious"}},{"src":"au","id":"southtrees","name":"Southtrees","country":"AU","lat":-23.854,"lon":151.314,"radio":{"name":"Biloela 4BRZ 89.7MHz FM The Breeze Central Queensland","url":"https://s8.yesstreaming.net:17065/BrzCNQ","kind":"aac","dist_km":101,"home":"https://thebreeze.com.au/","genre":"news & talk"}},{"src":"ioc","id":"sprg","name":"Spring Bay","country":"AU","lat":-42.546,"lon":147.933,"radio":{"name":"7WAY 105.3 Way FM - Launceston, TAS","url":"https://stream2.cnmns.net/wayfm-mp3","kind":"mp3","dist_km":139,"home":"https://www.wayfm.org.au/","genre":"religious"}},{"src":"au","id":"stpauls","name":"Stpauls","country":"AU","lat":-10.196,"lon":142.334,"radio":{"name":"Big Hits Radio QLD Townsville North Queensland 20220701","url":"https://onlineradiobox.com/json/au/bighits/play?platform=web","kind":"mp3","dist_km":1119,"home":"https://www.bighitsradio.com.au/BHR/bhr.html","genre":"news & talk"}},{"src":"au","id":"tangalooma","name":"Tangalooma","country":"AU","lat":-27.178,"lon":153.371,"radio":{"name":"4zzz","url":"https://iheart.4zzz.org.au/4zzz","kind":"mp3","dist_km":46,"home":"https://4zzz.org.au/","genre":"local radio"}},{"src":"au","id":"tewantinmb","name":"Tewantinmb","country":"AU","lat":-26.395,"lon":153.042,"radio":{"name":"4zzz","url":"https://iheart.4zzz.org.au/4zzz","kind":"mp3","dist_km":118,"home":"https://4zzz.org.au/","genre":"local radio"}},{"src":"ioc","id":"thev","name":"Thevenard","country":"AU","lat":-32.149,"lon":133.641,"radio":{"name":"Triple M Adelaide","url":"https://legacy.scahw.com.au/5mmm_32","kind":"aac","dist_km":553,"home":"https://www.triplem.com.au/adelaide","genre":"rock & alternative"}},{"src":"au","id":"thursdayisland","name":"Thursdayisland","country":"AU","lat":-10.586,"lon":142.222,"radio":{"name":"Big Hits Radio QLD Townsville North Queensland 20220701","url":"https://onlineradiobox.com/json/au/bighits/play?platform=web","kind":"mp3","dist_km":1086,"home":"https://www.bighitsradio.com.au/BHR/bhr.html","genre":"news & talk"}},{"src":"au","id":"tincanbay","name":"Tincanbay","country":"AU","lat":-25.899,"lon":153.014,"radio":{"name":"4zzz","url":"https://iheart.4zzz.org.au/4zzz","kind":"mp3","dist_km":174,"home":"https://4zzz.org.au/","genre":"local radio"}},{"src":"au","id":"townsville","name":"Townsville","country":"AU","lat":-19.252,"lon":146.83,"radio":{"name":"Big Hits Radio QLD Townsville North Queensland 20220701","url":"https://onlineradiobox.com/json/au/bighits/play?platform=web","kind":"mp3","dist_km":6,"home":"https://www.bighitsradio.com.au/BHR/bhr.html","genre":"news & talk"}},{"src":"au","id":"townsvillecard","name":"Townsvillecard","country":"AU","lat":-19.127,"lon":146.91,"radio":{"name":"Big Hits Radio QLD Townsville North Queensland 20220701","url":"https://onlineradiobox.com/json/au/bighits/play?platform=web","kind":"mp3","dist_km":23,"home":"https://www.bighitsradio.com.au/BHR/bhr.html","genre":"news & talk"}},{"src":"au","id":"tweedsbj","name":"Tweedsbj","country":"AU","lat":-28.172,"lon":153.558,"radio":{"name":"4zzz","url":"https://iheart.4zzz.org.au/4zzz","kind":"mp3","dist_km":95,"home":"https://4zzz.org.au/","genre":"local radio"}},{"src":"ioc","id":"tbwc","name":"Twofold Bay","country":"AU","lat":-37.1,"lon":149.927,"radio":{"name":"NIGE!","url":"https://ais-arn.streamguys1.com/au_030/playlist.m3u8","kind":"hls","dist_km":221,"home":"https://nige.au/","genre":"rock & alternative"}},{"src":"au","id":"ugar","name":"Ugar","country":"AU","lat":-9.505,"lon":143.547,"radio":{"name":"Big Hits Radio QLD Townsville North Queensland 20220701","url":"https://onlineradiobox.com/json/au/bighits/play?platform=web","kind":"mp3","dist_km":1143,"home":"https://www.bighitsradio.com.au/BHR/bhr.html","genre":"news & talk"}},{"src":"au","id":"urangan","name":"Urangan","country":"AU","lat":-25.296,"lon":152.911,"radio":{"name":"Biloela 4BRZ 89.7MHz FM The Breeze Central Queensland","url":"https://s8.yesstreaming.net:17065/BrzCNQ","kind":"aac","dist_km":261,"home":"https://thebreeze.com.au/","genre":"news & talk"}},{"src":"au","id":"warraber","name":"Warraber","country":"AU","lat":-10.204,"lon":142.822,"radio":{"name":"Big Hits Radio QLD Townsville North Queensland 20220701","url":"https://onlineradiobox.com/json/au/bighits/play?platform=web","kind":"mp3","dist_km":1097,"home":"https://www.bighitsradio.com.au/BHR/bhr.html","genre":"news & talk"}},{"src":"au","id":"weipanx","name":"Weipanx","country":"AU","lat":-12.668,"lon":141.862,"radio":{"name":"Big Hits Radio QLD Townsville North Queensland 20220701","url":"https://onlineradiobox.com/json/au/bighits/play?platform=web","kind":"mp3","dist_km":906,"home":"https://www.bighitsradio.com.au/BHR/bhr.html","genre":"news & talk"}},{"src":"au","id":"whyteislandnx","name":"Whyteislandnx","country":"AU","lat":-27.402,"lon":153.157,"radio":{"name":"4zzz","url":"https://iheart.4zzz.org.au/4zzz","kind":"mp3","dist_km":14,"home":"https://4zzz.org.au/","genre":"local radio"}},{"src":"ioc","id":"brid2","name":"Bridgetown Port","country":"BB","lat":13.111,"lon":-59.631,"radio":{"name":"VOB 92.9 FM","url":"https://ice66.securenetsystems.net/VOB929","kind":"aac","dist_km":3,"home":"https://vob929.com/","genre":"local radio"}},{"src":"ioc","id":"bcon","name":"Consett Bay Jetty","country":"BB","lat":13.179,"lon":-59.466,"radio":{"name":"VOB 92.9 FM","url":"https://ice66.securenetsystems.net/VOB929","kind":"aac","dist_km":18,"home":"https://vob929.com/","genre":"local radio"}},{"src":"ioc","id":"ptsc","name":"Port St. Charles","country":"BB","lat":13.263,"lon":-59.645,"radio":{"name":"VOB 92.9 FM","url":"https://ice66.securenetsystems.net/VOB929","kind":"aac","dist_km":19,"home":"https://vob929.com/","genre":"local radio"}},{"src":"ioc","id":"mpaw","name":"A2","country":"BE","lat":51.361,"lon":3.118,"radio":{"name":"Omroep Zeeland Radio","url":"https://d3isaxd2t6q8zm.cloudfront.net/icecast/omroepzeeland/omroepzeeland_radio","kind":"mp3","dist_km":35,"home":"https://www.omroepzeeland.nl/radio-zeeland","genre":"news & talk"}},{"src":"ioc","id":"blkw","name":"Blankenberge","country":"BE","lat":51.311,"lon":3.116,"radio":{"name":"Omroep Zeeland Radio","url":"https://d3isaxd2t6q8zm.cloudfront.net/icecast/omroepzeeland/omroepzeeland_radio","kind":"mp3","dist_km":38,"home":"https://www.omroepzeeland.nl/radio-zeeland","genre":"news & talk"}},{"src":"ioc","id":"nieu","name":"Nieuwpoort","country":"BE","lat":51.151,"lon":2.728,"radio":{"name":"Omroep Zeeland Radio","url":"https://d3isaxd2t6q8zm.cloudfront.net/icecast/omroepzeeland/omroepzeeland_radio","kind":"mp3","dist_km":70,"home":"https://www.omroepzeeland.nl/radio-zeeland","genre":"news & talk"}},{"src":"ioc","id":"oste1","name":"Oostende Haven","country":"BE","lat":51.234,"lon":2.927,"radio":{"name":"Omroep Zeeland Radio","url":"https://d3isaxd2t6q8zm.cloudfront.net/icecast/omroepzeeland/omroepzeeland_radio","kind":"mp3","dist_km":53,"home":"https://www.omroepzeeland.nl/radio-zeeland","genre":"news & talk"}},{"src":"ioc","id":"oste","name":"Ostend","country":"BE","lat":51.234,"lon":2.927,"radio":{"name":"Omroep Zeeland Radio","url":"https://d3isaxd2t6q8zm.cloudfront.net/icecast/omroepzeeland/omroepzeeland_radio","kind":"mp3","dist_km":53,"home":"https://www.omroepzeeland.nl/radio-zeeland","genre":"news & talk"}},{"src":"ioc","id":"mpsw","name":"Scheur Wielingen","country":"BE","lat":51.418,"lon":3.299,"radio":{"name":"Fantasy Italo Dance 90s radio","url":"https://mscp2.live-streams.nl:8152/italodance","kind":"mp3","dist_km":90,"home":"https://italo.dance/","genre":"dance & electronic"}},{"src":"ioc","id":"mpww","name":"Wandelaar","country":"BE","lat":51.394,"lon":3.046,"radio":{"name":"Omroep Zeeland Radio","url":"https://d3isaxd2t6q8zm.cloudfront.net/icecast/omroepzeeland/omroepzeeland_radio","kind":"mp3","dist_km":39,"home":"https://www.omroepzeeland.nl/radio-zeeland","genre":"news & talk"}},{"src":"ioc","id":"zldw","name":"Zeebrugge Leopold II dam","country":"BE","lat":51.346,"lon":3.2,"radio":{"name":"Omroep Zeeland Radio","url":"https://d3isaxd2t6q8zm.cloudfront.net/icecast/omroepzeeland/omroepzeeland_radio","kind":"mp3","dist_km":31,"home":"https://www.omroepzeeland.nl/radio-zeeland","genre":"news & talk"}},{"src":"ioc","id":"zwdw","name":"Zeebrugge Wielingendok","country":"BE","lat":51.355,"lon":3.178,"radio":{"name":"Omroep Zeeland Radio","url":"https://d3isaxd2t6q8zm.cloudfront.net/icecast/omroepzeeland/omroepzeeland_radio","kind":"mp3","dist_km":32,"home":"https://www.omroepzeeland.nl/radio-zeeland","genre":"news & talk"}},{"src":"ioc","id":"bbst","name":"Bermuda Biological Station","country":"BER","lat":32.37,"lon":-64.695,"radio":{"name":"70's Hits DJ Jan The Man","url":"https://quincy.torontocast.com:2500/stream","kind":"mp3","dist_km":1203,"home":"http://www.djjandaman.com/","genre":"dance & electronic"}},{"src":"ioc","id":"bbst2","name":"Bermuda Biological Station2","country":"BER","lat":32.37,"lon":-64.695,"radio":{"name":"70's Hits DJ Jan The Man","url":"https://quincy.torontocast.com:2500/stream","kind":"mp3","dist_km":1203,"home":"http://www.djjandaman.com/","genre":"dance & electronic"}},{"src":"ioc","id":"bmso","name":"Bermuda Somerset","country":"BER","lat":32.278,"lon":-64.876,"radio":{"name":"94.9 FM WKHI","url":"https://ice66.securenetsystems.net/WKHI","kind":"aac","dist_km":1158,"home":"https://949khi.com/","genre":"local radio"}},{"src":"ioc","id":"anti","name":"Antonina,","country":"BR","lat":-25.456,"lon":-48.676,"radio":{"name":"Alpha FM 90.1 Curitiba p PR","url":"https://radio901.webnimbus.cloud/radioalpha/icecast.audio","kind":"mp3","dist_km":47,"home":"https://radioalphacuritiba.com.br/","genre":"pop & hits"}},{"src":"ioc","id":"salv3","name":"Capitania dos Portos","country":"BR","lat":-12.974,"lon":-38.517,"radio":{"name":"Radio Sociedade","url":"https://painel.sintonizar.tv.br/stream/sociedadeaudio/stream","kind":"aac","dist_km":39,"home":"https://sociedadeonline.com/","genre":"news & talk"}},{"src":"ioc","id":"fort","name":"Fortaleza","country":"BR","lat":-3.717,"lon":-38.467,"radio":{"name":"Atos FM","url":"https://s.bul.tec.br:8020/128","kind":"mp3","dist_km":14,"home":"https://atosfm.com.br/","genre":"religious"}},{"src":"ioc","id":"ilha","name":"Ilhabela,","country":"BR","lat":-23.774,"lon":-45.355,"radio":{"name":"Rádio Nascente 87.5 FM","url":"https://servidor38.brlogic.com:7116/live","kind":"mp3","dist_km":57,"home":"http://www.radionascente.com.br/","genre":"pop & hits"}},{"src":"ioc","id":"imbi","name":"Imbituba","country":"BR","lat":-28.231,"lon":-48.651,"radio":{"name":"Rádio Galegóvski","url":"https://radio.galegovski.com/live","kind":"mp3","dist_km":2,"home":"https://radio.galegovski.com/","genre":"rock & alternative"}},{"src":"ioc","id":"tuba","name":"Imbituba,","country":"BR","lat":-28.231,"lon":-48.65,"radio":{"name":"Rádio Galegóvski","url":"https://radio.galegovski.com/live","kind":"mp3","dist_km":2,"home":"https://radio.galegovski.com/","genre":"rock & alternative"}},{"src":"ioc","id":"imbt","name":"Imbituba2","country":"BR","lat":-28.231,"lon":-48.651,"radio":{"name":"Rádio Galegóvski","url":"https://radio.galegovski.com/live","kind":"mp3","dist_km":2,"home":"https://radio.galegovski.com/","genre":"rock & alternative"}},{"src":"ioc","id":"dhnn","name":"Niterói,","country":"BR","lat":-22.885,"lon":-43.132,"radio":{"name":"Rádio Roquette Pinto","url":"https://radio.saopaulo01.com.br/8300/stream/","kind":"mp3","dist_km":5,"home":"https://radioroquettepinto.rj.gov.br/","genre":"local radio"}},{"src":"ioc","id":"parg","name":"Paranaguá,","country":"BR","lat":-25.502,"lon":-48.526,"radio":{"name":"Ilha do Mel FM","url":"https://str1.streamhostpg.com.br:8002/stream","kind":"aac","dist_km":1,"home":"https://ilhadomelfm.com.br/","genre":"news & talk"}},{"src":"ioc","id":"pece","name":"Pecém,","country":"BR","lat":-3.531,"lon":-38.793,"radio":{"name":"Atos FM","url":"https://s.bul.tec.br:8020/128","kind":"mp3","dist_km":45,"home":"https://atosfm.com.br/","genre":"religious"}},{"src":"ioc","id":"pont","name":"Pontal do Sul,","country":"BR","lat":-25.552,"lon":-48.366,"radio":{"name":"Ilha do Mel FM","url":"https://str1.streamhostpg.com.br:8002/stream","kind":"aac","dist_km":16,"home":"https://ilhadomelfm.com.br/","genre":"news & talk"}},{"src":"ioc","id":"imbt2","name":"Porto de Imbituba","country":"BR","lat":-28.231,"lon":-48.651,"radio":{"name":"Rádio Galegóvski","url":"https://radio.galegovski.com/live","kind":"mp3","dist_km":2,"home":"https://radio.galegovski.com/","genre":"rock & alternative"}},{"src":"ioc","id":"fort2","name":"Porto de Mucuripe","country":"BR","lat":-3.714,"lon":-38.477,"radio":{"name":"Atos FM","url":"https://s.bul.tec.br:8020/128","kind":"mp3","dist_km":14,"home":"https://atosfm.com.br/","genre":"religious"}},{"src":"ioc","id":"rig2","name":"Rio Grande,","country":"BR","lat":-32.167,"lon":-52.094,"radio":{"name":"Rádio Pátria Gaúcha","url":"https://servidor16-3.brlogic.com:7614/live?source=website","kind":"mp3","dist_km":52,"home":"https://radiopatriagaucha.com.br/","genre":"local radio"}},{"src":"ioc","id":"salv","name":"Salvador (Capitania dos Portos da Bahia)","country":"BR","lat":-12.967,"lon":-38.517,"radio":{"name":"Radio Sociedade","url":"https://painel.sintonizar.tv.br/stream/sociedadeaudio/stream","kind":"aac","dist_km":40,"home":"https://sociedadeonline.com/","genre":"news & talk"}},{"src":"ioc","id":"riba","name":"São José do Ribamar,","country":"BR","lat":-2.563,"lon":-44.052,"radio":{"name":"Rádio Boa fm","url":"https://webradio.amsolution.com.br/radio/8290/boa","kind":"mp3","dist_km":314,"home":"https://www.meionorte.com/radios/boafm","genre":"local radio"}},{"src":"ioc","id":"tame","name":"Tamandaré,","country":"BR","lat":-8.761,"lon":-35.099,"radio":{"name":"Maragogi Fm 97.3","url":"https://04.painelstreaming.com.br:27124/;","kind":"mp3","dist_km":32,"home":"https://maragogifm.com.br/","genre":"news & talk"}},{"src":"ioc","id":"trai","name":"Tramandaí,","country":"BR","lat":-30.005,"lon":-50.129,"radio":{"name":"Mix FM - Porto Alegre","url":"https://playerservices.streamtheworld.com/api/livestream-redirect/MIXFM_POAAAC.aac","kind":"aac","dist_km":100,"home":"http://www.mixfmpoa.com.br/","genre":"rock & alternative"}},{"src":"ioc","id":"setp1","name":"Settlement pt","country":"BS","lat":26.683,"lon":-78.983,"radio":{"name":"WiLD 95.5","url":"https://ample.revma.ihrhls.com/zc713/62_1clkf4vaz443602/playlist.m3u8","kind":"hls","dist_km":110,"home":"https://wild955.iheart.com/","genre":"pop & hits"}},{"src":"ioc","id":"tbvi2","name":"Cane Garden, Tortola","country":"BVI","lat":18.43,"lon":-64.661,"radio":{"name":"Soggy Dollar Radio","url":"https://samcloud.spacial.com/api/listen?sid=71281","kind":"mp3","dist_km":11,"home":"https://www.soggydollar.com/","genre":"local radio"}},{"src":"ioc","id":"bamf","name":"Bamfield","country":"CA","lat":48.84,"lon":-125.14,"radio":{"name":"CHPQ-FM \"The Lounge 99.9\" Parksville, BC","url":"https://stream.jpbgdigital.com/CHPQ.m3u8","kind":"hls","dist_km":81,"home":"https://www.thelounge999.com/","genre":"oldies & gold"}},{"src":"ioc","id":"bbbc","name":"Bella Bella","country":"CA","lat":52.16,"lon":-128.14,"radio":{"name":"CFNI 1240 \"Coast AM\"  Port Hardy, BC","url":"https://vistaradio.streamb.live/SB00083","kind":"aac","dist_km":166,"home":"https://www.mytriportnow.com/on-air/","genre":"oldies & gold"}},{"src":"ioc","id":"crbc","name":"Campbell River","country":"CA","lat":50.04,"lon":-125.25,"radio":{"name":"Spirit FM","url":"https://ais-sa1.streamon.fm/7155_48k.aac","kind":"aac","dist_km":2,"home":"https://www.spiritfm.ca/","genre":"religious"}},{"src":"ioc","id":"hens","name":"Henslung Cove","country":"CA","lat":54.183,"lon":-133.0,"radio":{"name":"KFSK Petersburg, AK","url":"https://amber.streamguys1.com:4625/","kind":"aac","dist_km":292,"home":"https://www.kfsk.org/","genre":"community"}},{"src":"ioc","id":"lpbc","name":"Langara Point BC (Henslung Cove)","country":"CA","lat":54.2,"lon":-133.1,"radio":{"name":"KFSK Petersburg, AK","url":"https://amber.streamguys1.com:4625/","kind":"aac","dist_km":291,"home":"https://www.kfsk.org/","genre":"community"}},{"src":"ioc","id":"nain","name":"Nain","country":"CA","lat":56.55,"lon":-61.68,"radio":{"name":"Bas-Saint-Laurent, Côte-Nord, Gaspésie-Îles-de-la-Madeleine (Rimouski, QC)","url":"https://rcavliveaudio.akamaized.net/hls/live/2006987/M-7QRIM0_RIM/master.m3u8","kind":"hls","dist_km":1012,"home":"https://ici.radio-canada.ca/ohdio/musique","genre":"classical"}},{"src":"ioc","id":"palb","name":"Port Alberni","country":"CA","lat":49.226,"lon":-124.814,"radio":{"name":"CHPQ-FM \"The Lounge 99.9\" Parksville, BC","url":"https://stream.jpbgdigital.com/CHPQ.m3u8","kind":"hls","dist_km":38,"home":"https://www.thelounge999.com/","genre":"oldies & gold"}},{"src":"ioc","id":"phbc","name":"Port Hardy","country":"CA","lat":50.717,"lon":-127.483,"radio":{"name":"CFNI 1240 \"Coast AM\"  Port Hardy, BC","url":"https://vistaradio.streamb.live/SB00083","kind":"aac","dist_km":1,"home":"https://www.mytriportnow.com/on-air/","genre":"oldies & gold"}},{"src":"ioc","id":"prin2","name":"Prince Rupert","country":"CA","lat":54.317,"lon":-130.317,"radio":{"name":"CFBV \"The Moose\" 870 Smithers, 106.5 Houston, 760 Burns Lake, BC","url":"https://vistaradio.streamb.live/SB00077","kind":"aac","dist_km":209,"home":"https://www.mybulkleylakesnow.com/","genre":"pop & hits"}},{"src":"ioc","id":"qcbc","name":"Queen Charlotte","country":"CA","lat":53.25,"lon":-132.067,"radio":{"name":"CFBV \"The Moose\" 870 Smithers, 106.5 Houston, 760 Burns Lake, BC","url":"https://vistaradio.streamb.live/SB00077","kind":"aac","dist_km":362,"home":"https://www.mybulkleylakesnow.com/","genre":"pop & hits"}},{"src":"ioc","id":"stjo","name":"St. Johns","country":"CA","lat":47.57,"lon":-52.72,"radio":{"name":"VOAR 96.7 \"Lighthouse FM\" St. John's, NL","url":"https://usa4.fastcast4u.com/proxy/lighthousefm?mp=/1","kind":"mp3","dist_km":8,"home":"http://www.voar.org/","genre":"dance & electronic"}},{"src":"ioc","id":"tfbc","name":"Tofino","country":"CA","lat":49.15,"lon":-125.91,"radio":{"name":"Spirit FM","url":"https://ais-sa1.streamon.fm/7155_48k.aac","kind":"aac","dist_km":108,"home":"https://www.spiritfm.ca/","genre":"religious"}},{"src":"ioc","id":"vhbc","name":"Vancouver Harbor","country":"CA","lat":49.283,"lon":-123.117,"radio":{"name":"80's New Wave Radio","url":"https://puma.streemlion.com:2910/stream","kind":"mp3","dist_km":3,"home":"https://newwaveradio.org/","genre":"rock & alternative"}},{"src":"ioc","id":"vibc","name":"Victoria Harbor","country":"CA","lat":48.42,"lon":-123.37,"radio":{"name":"CHKG-FM 96.1 \"Fairchild Radio\" Vancouver, BC","url":"https://5b2959fe11444.streamlock.net/radio/fm961.stream/playlist.m3u8","kind":"hls","dist_km":86,"home":"http://www.am1470.com/english/","genre":"world & culture"}},{"src":"ioc","id":"whbc","name":"Winter Harbour","country":"CA","lat":50.51,"lon":-128.03,"radio":{"name":"CFNI 1240 \"Coast AM\"  Port Hardy, BC","url":"https://vistaradio.streamb.live/SB00083","kind":"aac","dist_km":45,"home":"https://www.mytriportnow.com/on-air/","genre":"oldies & gold"}},{"src":"ioc","id":"palm1","name":"Palmeira","country":"CBV","lat":16.755,"lon":-22.983,"radio":{"name":"RCE Radio Comunitaria dos Espargos","url":"https://stream-286.zeno.fm/c2sm9z24muhvv?zt=eyJhbGciOiJIUzI1NiJ9.eyJzdHJlYW0iOiJjMnNtOXoyNG11aHZ2IiwiaG9zdCI6InN0cmVhbS0yODYuemVuby5mbSIsInRtIjpmYWxzZSwicnR0bCI6NSwianRpIjoibGRacGlYcERTcWkzcFNobDl1YzQ2ZyIsImlhdCI6MTc4MTA4NjUyNiwiZXhwIjoxNzgxMDg2NTg2fQ.6bhZuQB8aTkxxxwpkcB2-JHY0oHaGIrAHxpGHPMNhfU","kind":"mp3","dist_km":4,"home":"https://rce.cv/","genre":"local radio"}},{"src":"ioc","id":"penr","name":"Penrhyn","country":"CKI","lat":-9.001,"lon":-158.051,"radio":{"name":"Polynésie 1ère","url":"https://polynesie.ice.infomaniak.ch/polynesie-128.mp3","kind":"mp3","dist_km":1320,"home":"https://la1ere.francetvinfo.fr/polynesie/","genre":"news & talk"}},{"src":"ioc","id":"raro","name":"Rarotonga","country":"CKI","lat":-21.2,"lon":-159.783,"radio":{"name":"Polynésie 1ère","url":"https://polynesie.ice.infomaniak.ch/polynesie-128.mp3","kind":"mp3","dist_km":1144,"home":"https://la1ere.francetvinfo.fr/polynesie/","genre":"news & talk"}},{"src":"ioc","id":"ancu","name":"Ancud","country":"CL","lat":-41.867,"lon":-73.833,"radio":{"name":"FM Bariloche","url":"https://streaming1.locucionar.com/proxy/colgados?mp=/stream","kind":"aac","dist_km":225,"home":"https://fmbariloche.com.ar/","genre":"news & talk"}},{"src":"ioc","id":"ancu2","name":"Ancud","country":"CL","lat":-41.867,"lon":-73.833,"radio":{"name":"FM Bariloche","url":"https://streaming1.locucionar.com/proxy/colgados?mp=/stream","kind":"aac","dist_km":225,"home":"https://fmbariloche.com.ar/","genre":"news & talk"}},{"src":"ioc","id":"anto","name":"Antofagasta","country":"CL","lat":-23.654,"lon":-70.405,"radio":{"name":"Radio FM Universidad de Antofagasta 99.9","url":"https://sonicstream-puntual.grupozgh.cl/8040/radioua","kind":"mp3","dist_km":1,"home":"https://radioua.cl/","genre":"community"}},{"src":"ioc","id":"anto2","name":"Antofagasta","country":"CL","lat":-23.654,"lon":-70.405,"radio":{"name":"Radio FM Universidad de Antofagasta 99.9","url":"https://sonicstream-puntual.grupozgh.cl/8040/radioua","kind":"mp3","dist_km":1,"home":"https://radioua.cl/","genre":"community"}},{"src":"ioc","id":"enap2","name":"Arica (Sitio 7)","country":"CL","lat":-18.469,"lon":-70.324,"radio":{"name":"Radio Retro","url":"https://stream2.eistreaming.com/7068/stream","kind":"aac","dist_km":50,"home":"https://www.siempreretro.com/","genre":"oldies & gold"}},{"src":"ioc","id":"aric2","name":"Arica","country":"CL","lat":-18.476,"lon":-70.323,"radio":{"name":"Radio Retro","url":"https://stream2.eistreaming.com/7068/stream","kind":"aac","dist_km":51,"home":"https://www.siempreretro.com/","genre":"oldies & gold"}},{"src":"ioc","id":"enap","name":"Arica CL (Sitio 7)","country":"CL","lat":-18.469,"lon":-70.324,"radio":{"name":"Radio Retro","url":"https://stream2.eistreaming.com/7068/stream","kind":"aac","dist_km":50,"home":"https://www.siempreretro.com/","genre":"oldies & gold"}},{"src":"ioc","id":"greg","name":"Bahia Gregorio","country":"CL","lat":-52.648,"lon":-70.209,"radio":{"name":"La Radio de la Gente LU12 AM 680 Rio Gallegos","url":"https://sa.mp3.icecast.magma.edge-access.net/LOA_LaOpinionAustral","kind":"mp3","dist_km":133,"home":"https://lu12.com.ar/","genre":"news & talk"}},{"src":"ioc","id":"greg2","name":"Bahia Gregorio","country":"CL","lat":-52.648,"lon":-70.209,"radio":{"name":"La Radio de la Gente LU12 AM 680 Rio Gallegos","url":"https://sa.mp3.icecast.magma.edge-access.net/LOA_LaOpinionAustral","kind":"mp3","dist_km":133,"home":"https://lu12.com.ar/","genre":"news & talk"}},{"src":"ioc","id":"bmsa","name":"Bahia Mansa","country":"CL","lat":-40.581,"lon":-73.737,"radio":{"name":"Biobio Valdivia","url":"https://unlimited3-cl.dps.live/biobiovaldivia/aac/icecast.audio","kind":"aac","dist_km":94,"home":"https://www.biobiochile.cl/lista/tags/valdivia","genre":"news & talk"}},{"src":"ioc","id":"bmsa2","name":"Bahia Mansa","country":"CL","lat":-40.581,"lon":-73.737,"radio":{"name":"Biobio Valdivia","url":"https://unlimited3-cl.dps.live/biobiovaldivia/aac/icecast.audio","kind":"aac","dist_km":94,"home":"https://www.biobiochile.cl/lista/tags/valdivia","genre":"news & talk"}},{"src":"ioc","id":"ohig3","name":"Base General Bernardo O'Higgins","country":"CL","lat":-63.32,"lon":-57.899,"radio":{"name":"Falklands Radio 530 Stanley","url":"https://streaming.broadcastradio.com:8332/flklnd","kind":"mp3","dist_km":1290,"home":"https://radio.co.fk/","genre":"news & talk"}},{"src":"ioc","id":"prat3","name":"Base Naval Capitan Arturo Prat","country":"CL","lat":-62.479,"lon":-59.663,"radio":{"name":"Falklands Radio 530 Stanley","url":"https://streaming.broadcastradio.com:8332/flklnd","kind":"mp3","dist_km":1201,"home":"https://radio.co.fk/","genre":"news & talk"}},{"src":"ioc","id":"boye2","name":"Boyeruca","country":"CL","lat":-34.687,"lon":-72.058,"radio":{"name":"Radio Paloma","url":"https://audio3.tustreaming.cl/7320/stream","kind":"aac","dist_km":89,"home":"https://radiopaloma.cl/","genre":"local radio"}},{"src":"ioc","id":"boye","name":"Boyeruca","country":"CL","lat":-34.687,"lon":-72.058,"radio":{"name":"Radio Paloma","url":"https://audio3.tustreaming.cl/7320/stream","kind":"aac","dist_km":89,"home":"https://radiopaloma.cl/","genre":"local radio"}},{"src":"ioc","id":"cald","name":"Caldera","country":"CL","lat":-27.065,"lon":-70.825,"radio":{"name":"CLUB DANCE CHILE","url":"https://stream.clubdance.cl/","kind":"aac","dist_km":59,"home":"https://clubdance.cl/","genre":"dance & electronic"}},{"src":"ioc","id":"cald2","name":"Caldera","country":"CL","lat":-27.065,"lon":-70.825,"radio":{"name":"CLUB DANCE CHILE","url":"https://stream.clubdance.cl/","kind":"aac","dist_km":59,"home":"https://clubdance.cl/","genre":"dance & electronic"}},{"src":"ioc","id":"cmet","name":"Caleta Meteoro","country":"CL","lat":-52.961,"lon":-74.072,"radio":{"name":"Radiofavoritaranchera","url":"https://stream.zeno.fm/pdlp0sxtdjkvv","kind":"mp3","dist_km":348,"home":"https://stream.zeno.fm/pdlp0sxtdjkvv","genre":"world & culture"}},{"src":"ioc","id":"cstr","name":"Castro","country":"CL","lat":-42.481,"lon":-73.758,"radio":{"name":"La Melinkana FM","url":"https://audio3.tustreaming.cl/7050/stream","kind":"mp3","dist_km":157,"home":"https://lamelinkanafm.cl/","genre":"news & talk"}},{"src":"ioc","id":"cstr2","name":"Castro","country":"CL","lat":-42.481,"lon":-73.758,"radio":{"name":"La Melinkana FM","url":"https://audio3.tustreaming.cl/7050/stream","kind":"mp3","dist_km":157,"home":"https://lamelinkanafm.cl/","genre":"news & talk"}},{"src":"ioc","id":"chnr","name":"Chañaral","country":"CL","lat":-26.352,"lon":-70.634,"radio":{"name":"CLUB DANCE CHILE","url":"https://stream.clubdance.cl/","kind":"aac","dist_km":117,"home":"https://clubdance.cl/","genre":"dance & electronic"}},{"src":"ioc","id":"chnr2","name":"Chañaral","country":"CL","lat":-26.352,"lon":-70.634,"radio":{"name":"CLUB DANCE CHILE","url":"https://stream.clubdance.cl/","kind":"aac","dist_km":117,"home":"https://clubdance.cl/","genre":"dance & electronic"}},{"src":"ioc","id":"coli2","name":"Coliumo","country":"CL","lat":-36.538,"lon":-72.957,"radio":{"name":"Radio Rural Chile","url":"https://stm7.voxhd.com.br:10788/stream","kind":"mp3","dist_km":71,"home":"https://www.radiosfull.com/radio/136/radio-rural-chile","genre":"local radio"}},{"src":"ioc","id":"coli","name":"Coliumo","country":"CL","lat":-36.538,"lon":-72.957,"radio":{"name":"Radio Rural Chile","url":"https://stm7.voxhd.com.br:10788/stream","kind":"mp3","dist_km":71,"home":"https://www.radiosfull.com/radio/136/radio-rural-chile","genre":"local radio"}},{"src":"ioc","id":"cons2","name":"Constitucion (Chile)","country":"CL","lat":-35.356,"lon":-72.457,"radio":{"name":"Radio Paloma","url":"https://audio3.tustreaming.cl/7320/stream","kind":"aac","dist_km":72,"home":"https://radiopaloma.cl/","genre":"local radio"}},{"src":"ioc","id":"const","name":"Constitucion (Chile)","country":"CL","lat":-35.356,"lon":-72.457,"radio":{"name":"Radio Paloma","url":"https://audio3.tustreaming.cl/7320/stream","kind":"aac","dist_km":72,"home":"https://radiopaloma.cl/","genre":"local radio"}},{"src":"ioc","id":"coqu2","name":"Coquimbo","country":"CL","lat":-29.95,"lon":-71.335,"radio":{"name":"Radio Iglesia Cristiana La Serena","url":"https://servidor32.brlogic.com:7050/live","kind":"mp3","dist_km":9,"home":"https://iglesiacristianalaserena.cl/","genre":"local radio"}},{"src":"ioc","id":"coqu","name":"Coquimbo","country":"CL","lat":-29.95,"lon":-71.335,"radio":{"name":"Radio Iglesia Cristiana La Serena","url":"https://servidor32.brlogic.com:7050/live","kind":"mp3","dist_km":9,"home":"https://iglesiacristianalaserena.cl/","genre":"local radio"}},{"src":"ioc","id":"crnl","name":"Coronel","country":"CL","lat":-37.029,"lon":-73.152,"radio":{"name":"Radio Rural Chile","url":"https://stm7.voxhd.com.br:10788/stream","kind":"mp3","dist_km":24,"home":"https://www.radiosfull.com/radio/136/radio-rural-chile","genre":"local radio"}},{"src":"ioc","id":"crnl2","name":"Coronel","country":"CL","lat":-37.029,"lon":-73.152,"radio":{"name":"Radio Rural Chile","url":"https://stm7.voxhd.com.br:10788/stream","kind":"mp3","dist_km":24,"home":"https://www.radiosfull.com/radio/136/radio-rural-chile","genre":"local radio"}},{"src":"ioc","id":"corr","name":"Corral","country":"CL","lat":-39.887,"lon":-73.427,"radio":{"name":"Biobio Valdivia","url":"https://unlimited3-cl.dps.live/biobiovaldivia/aac/icecast.audio","kind":"aac","dist_km":18,"home":"https://www.biobiochile.cl/lista/tags/valdivia","genre":"news & talk"}},{"src":"ioc","id":"corr2","name":"Corral","country":"CL","lat":-39.887,"lon":-73.427,"radio":{"name":"Biobio Valdivia","url":"https://unlimited3-cl.dps.live/biobiovaldivia/aac/icecast.audio","kind":"aac","dist_km":18,"home":"https://www.biobiochile.cl/lista/tags/valdivia","genre":"news & talk"}},{"src":"ioc","id":"dval","name":"DART NW of Valparaiso","country":"CL","lat":-32.13,"lon":-73.796,"radio":{"name":"Ritoque FM","url":"https://archi-us.digitalproserver.com/ritoquefm_aac","kind":"mp3","dist_km":228,"home":"https://ritoquefm.cl/","genre":"rock & alternative"}},{"src":"ioc","id":"dval2","name":"DART NW of Valparaiso","country":"CL","lat":-32.13,"lon":-73.796,"radio":{"name":"Ritoque FM","url":"https://archi-us.digitalproserver.com/ritoquefm_aac","kind":"mp3","dist_km":228,"home":"https://ritoquefm.cl/","genre":"rock & alternative"}},{"src":"ioc","id":"dch2","name":"DART West of Antofagasta","country":"CL","lat":-23.169,"lon":-72.066,"radio":{"name":"Radio FM Universidad de Antofagasta 99.9","url":"https://sonicstream-puntual.grupozgh.cl/8040/radioua","kind":"mp3","dist_km":179,"home":"https://radioua.cl/","genre":"community"}},{"src":"ioc","id":"dch4","name":"DART West of Antofagasta","country":"CL","lat":-23.169,"lon":-72.066,"radio":{"name":"Radio FM Universidad de Antofagasta 99.9","url":"https://sonicstream-puntual.grupozgh.cl/8040/radioua","kind":"mp3","dist_km":179,"home":"https://radioua.cl/","genre":"community"}},{"src":"ioc","id":"dcld2","name":"DART West of Caldera","country":"CL","lat":-26.745,"lon":-73.985,"radio":{"name":"CLUB DANCE CHILE","url":"https://stream.clubdance.cl/","kind":"aac","dist_km":368,"home":"https://clubdance.cl/","genre":"dance & electronic"}},{"src":"ioc","id":"dchi2","name":"DART West of Iquique","country":"CL","lat":-20.607,"lon":-73.393,"radio":{"name":"Radio Mas RocknPop","url":"https://streaming.masrocknpop.com/8188/stream","kind":"aac","dist_km":237,"home":"https://www.masrocknpop.com/","genre":"rock & alternative"}},{"src":"ioc","id":"huas","name":"Huasco","country":"CL","lat":-28.469,"lon":-71.25,"radio":{"name":"Radio Rebuena 95.7FM","url":"https://audio5.tustreaming.cl/7930/stream","kind":"aac","dist_km":3,"home":"https://www.radiorebuena.cl/","genre":"local radio"}},{"src":"ioc","id":"huas2","name":"Huasco","country":"CL","lat":-28.469,"lon":-71.25,"radio":{"name":"Radio Rebuena 95.7FM","url":"https://audio5.tustreaming.cl/7930/stream","kind":"aac","dist_km":3,"home":"https://www.radiorebuena.cl/","genre":"local radio"}},{"src":"ioc","id":"iqui","name":"Iquique","country":"CL","lat":-20.205,"lon":-70.148,"radio":{"name":"Raxies FM","url":"https://stream.zeno.fm/annpmyskb4jtv","kind":"aac","dist_km":3,"home":"https://raxiesfm.neocities.org/","genre":"news & talk"}},{"src":"ioc","id":"iqui2","name":"Iquique","country":"CL","lat":-20.205,"lon":-70.148,"radio":{"name":"Raxies FM","url":"https://stream.zeno.fm/annpmyskb4jtv","kind":"aac","dist_km":3,"home":"https://raxiesfm.neocities.org/","genre":"news & talk"}},{"src":"ioc","id":"east","name":"Isla de Pascua (Rapa Nui)","country":"CL","lat":-27.155,"lon":-109.439,"radio":{"name":"Polynésie 1ère","url":"https://polynesie.ice.infomaniak.ch/polynesie-128.mp3","kind":"mp3","dist_km":4247,"home":"https://la1ere.francetvinfo.fr/polynesie/","genre":"news & talk"}},{"src":"ioc","id":"east2","name":"Isla de Pascua (Rapa Nui)","country":"CL","lat":-27.155,"lon":-109.439,"radio":{"name":"Polynésie 1ère","url":"https://polynesie.ice.infomaniak.ch/polynesie-128.mp3","kind":"mp3","dist_km":4247,"home":"https://la1ere.francetvinfo.fr/polynesie/","genre":"news & talk"}},{"src":"ioc","id":"juan","name":"Juan Fernandez - Robinson Crusoe (Chile)","country":"CL","lat":-33.636,"lon":-78.83,"radio":{"name":"Radio 7 Tazas de Molina FM","url":"https://miradio.f96.cl/8006/streaming","kind":"aac","dist_km":545,"home":"https://radio7tazasdemolina.cl/","genre":"world & culture"}},{"src":"ioc","id":"juan2","name":"Juan Fernandez - Robinson Crusoe (Chile)","country":"CL","lat":-33.636,"lon":-78.83,"radio":{"name":"Radio 7 Tazas de Molina FM","url":"https://miradio.f96.cl/8006/streaming","kind":"aac","dist_km":545,"home":"https://radio7tazasdemolina.cl/","genre":"world & culture"}},{"src":"ioc","id":"lebu","name":"Lebu","country":"CL","lat":-37.594,"lon":-73.664,"radio":{"name":"Radio Rural Chile","url":"https://stm7.voxhd.com.br:10788/stream","kind":"mp3","dist_km":79,"home":"https://www.radiosfull.com/radio/136/radio-rural-chile","genre":"local radio"}},{"src":"ioc","id":"lebu2","name":"Lebu","country":"CL","lat":-37.594,"lon":-73.664,"radio":{"name":"Radio Rural Chile","url":"https://stm7.voxhd.com.br:10788/stream","kind":"mp3","dist_km":79,"home":"https://www.radiosfull.com/radio/136/radio-rural-chile","genre":"local radio"}},{"src":"ioc","id":"meji","name":"Mejillones","country":"CL","lat":-23.098,"lon":-70.451,"radio":{"name":"Radio FM Universidad de Antofagasta 99.9","url":"https://sonicstream-puntual.grupozgh.cl/8040/radioua","kind":"mp3","dist_km":62,"home":"https://radioua.cl/","genre":"community"}},{"src":"ioc","id":"meji2","name":"Mejillones","country":"CL","lat":-23.098,"lon":-70.451,"radio":{"name":"Radio FM Universidad de Antofagasta 99.9","url":"https://sonicstream-puntual.grupozgh.cl/8040/radioua","kind":"mp3","dist_km":62,"home":"https://radioua.cl/","genre":"community"}},{"src":"ioc","id":"nhte","name":"Nehuentue","country":"CL","lat":-38.75,"lon":-73.408,"radio":{"name":"Universal Pitrufquen Chile","url":"https://s02.azuracast.cl/listen/radio_universal/universal","kind":"mp3","dist_km":71,"home":"https://www.radiouniversal.cl/","genre":"local radio"}},{"src":"ioc","id":"ntue","name":"Nehuentue","country":"CL","lat":-38.75,"lon":-73.408,"radio":{"name":"Universal Pitrufquen Chile","url":"https://s02.azuracast.cl/listen/radio_universal/universal","kind":"mp3","dist_km":71,"home":"https://www.radiouniversal.cl/","genre":"local radio"}},{"src":"ioc","id":"ntue2","name":"Nehuentue","country":"CL","lat":-38.75,"lon":-73.408,"radio":{"name":"Universal Pitrufquen Chile","url":"https://s02.azuracast.cl/listen/radio_universal/universal","kind":"mp3","dist_km":71,"home":"https://www.radiouniversal.cl/","genre":"local radio"}},{"src":"ioc","id":"papo","name":"Paposo","country":"CL","lat":-25.009,"lon":-70.469,"radio":{"name":"Radio FM Universidad de Antofagasta 99.9","url":"https://sonicstream-puntual.grupozgh.cl/8040/radioua","kind":"mp3","dist_km":151,"home":"https://radioua.cl/","genre":"community"}},{"src":"ioc","id":"papo2","name":"Paposo","country":"CL","lat":-25.009,"lon":-70.469,"radio":{"name":"Radio FM Universidad de Antofagasta 99.9","url":"https://sonicstream-puntual.grupozgh.cl/8040/radioua","kind":"mp3","dist_km":151,"home":"https://radioua.cl/","genre":"community"}},{"src":"ioc","id":"pata","name":"Patache","country":"CL","lat":-20.803,"lon":-70.198,"radio":{"name":"Raxies FM","url":"https://stream.zeno.fm/annpmyskb4jtv","kind":"aac","dist_km":64,"home":"https://raxiesfm.neocities.org/","genre":"news & talk"}},{"src":"ioc","id":"pata2","name":"Patache","country":"CL","lat":-20.803,"lon":-70.198,"radio":{"name":"Raxies FM","url":"https://stream.zeno.fm/annpmyskb4jtv","kind":"aac","dist_km":64,"home":"https://raxiesfm.neocities.org/","genre":"news & talk"}},{"src":"ioc","id":"pich","name":"Pichidangui","country":"CL","lat":-32.136,"lon":-71.529,"radio":{"name":"Happy Radio Chile","url":"https://a6.asurahosting.com:8840/radio.mp3","kind":"mp3","dist_km":42,"home":"https://www.happyradio.cl/","genre":"dance & electronic"}},{"src":"ioc","id":"pich2","name":"Pichidangui","country":"CL","lat":-32.136,"lon":-71.529,"radio":{"name":"Happy Radio Chile","url":"https://a6.asurahosting.com:8840/radio.mp3","kind":"mp3","dist_km":42,"home":"https://www.happyradio.cl/","genre":"dance & electronic"}},{"src":"ioc","id":"pisa","name":"Pisagua","country":"CL","lat":-19.597,"lon":-70.216,"radio":{"name":"Raxies FM","url":"https://stream.zeno.fm/annpmyskb4jtv","kind":"aac","dist_km":71,"home":"https://raxiesfm.neocities.org/","genre":"news & talk"}},{"src":"ioc","id":"pisa2","name":"Pisagua","country":"CL","lat":-19.597,"lon":-70.216,"radio":{"name":"Raxies FM","url":"https://stream.zeno.fm/annpmyskb4jtv","kind":"aac","dist_km":71,"home":"https://raxiesfm.neocities.org/","genre":"news & talk"}},{"src":"ioc","id":"pagi","name":"Puerto Aguirre","country":"CL","lat":-45.165,"lon":-73.521,"radio":{"name":"Radio Las Nieves","url":"https://audio2.tustreaming.cl:10987/stream","kind":"mp3","dist_km":70,"home":"http://www.rln.cl/","genre":"news & talk"}},{"src":"ioc","id":"ptal","name":"Puerto Aldea","country":"CL","lat":-30.292,"lon":-71.608,"radio":{"name":"Radio Iglesia Cristiana La Serena","url":"https://servidor32.brlogic.com:7050/live","kind":"mp3","dist_km":53,"home":"https://iglesiacristianalaserena.cl/","genre":"local radio"}},{"src":"ioc","id":"ptal2","name":"Puerto Aldea","country":"CL","lat":-30.292,"lon":-71.608,"radio":{"name":"Radio Iglesia Cristiana La Serena","url":"https://servidor32.brlogic.com:7050/live","kind":"mp3","dist_km":53,"home":"https://iglesiacristianalaserena.cl/","genre":"local radio"}},{"src":"ioc","id":"pedn","name":"Puerto Eden","country":"CL","lat":-49.13,"lon":-74.409,"radio":{"name":"Radiofavoritaranchera","url":"https://stream.zeno.fm/pdlp0sxtdjkvv","kind":"mp3","dist_km":189,"home":"https://stream.zeno.fm/pdlp0sxtdjkvv","genre":"world & culture"}},{"src":"ioc","id":"pedn2","name":"Puerto Eden","country":"CL","lat":-49.13,"lon":-74.409,"radio":{"name":"Radiofavoritaranchera","url":"https://stream.zeno.fm/pdlp0sxtdjkvv","kind":"mp3","dist_km":189,"home":"https://stream.zeno.fm/pdlp0sxtdjkvv","genre":"world & culture"}},{"src":"ioc","id":"pmel","name":"Puerto Melinka","country":"CL","lat":-43.898,"lon":-73.748,"radio":{"name":"La Melinkana FM","url":"https://audio3.tustreaming.cl/7050/stream","kind":"mp3","dist_km":0,"home":"https://lamelinkanafm.cl/","genre":"news & talk"}},{"src":"ioc","id":"pmel2","name":"Puerto Melinka","country":"CL","lat":-43.898,"lon":-73.748,"radio":{"name":"La Melinkana FM","url":"https://audio3.tustreaming.cl/7050/stream","kind":"mp3","dist_km":0,"home":"https://lamelinkanafm.cl/","genre":"news & talk"}},{"src":"ioc","id":"pmon","name":"Puerto Montt (Chile)","country":"CL","lat":-41.485,"lon":-72.961,"radio":{"name":"FM Bariloche","url":"https://streaming1.locucionar.com/proxy/colgados?mp=/stream","kind":"aac","dist_km":144,"home":"https://fmbariloche.com.ar/","genre":"news & talk"}},{"src":"ioc","id":"pmon2","name":"Puerto Montt (Chile)","country":"CL","lat":-41.485,"lon":-72.961,"radio":{"name":"FM Bariloche","url":"https://streaming1.locucionar.com/proxy/colgados?mp=/stream","kind":"aac","dist_km":144,"home":"https://fmbariloche.com.ar/","genre":"news & talk"}},{"src":"ioc","id":"pnat","name":"Puerto Natales","country":"CL","lat":-51.729,"lon":-72.516,"radio":{"name":"Radiofavoritaranchera","url":"https://stream.zeno.fm/pdlp0sxtdjkvv","kind":"mp3","dist_km":188,"home":"https://stream.zeno.fm/pdlp0sxtdjkvv","genre":"world & culture"}},{"src":"ioc","id":"pnat2","name":"Puerto Natales","country":"CL","lat":-51.729,"lon":-72.516,"radio":{"name":"Radiofavoritaranchera","url":"https://stream.zeno.fm/pdlp0sxtdjkvv","kind":"mp3","dist_km":188,"home":"https://stream.zeno.fm/pdlp0sxtdjkvv","genre":"world & culture"}},{"src":"ioc","id":"pcha","name":"Puerto Chacabuco","country":"CL","lat":-45.467,"lon":-72.82,"radio":{"name":"Radio Las Nieves","url":"https://audio2.tustreaming.cl:10987/stream","kind":"mp3","dist_km":12,"home":"http://www.rln.cl/","genre":"news & talk"}},{"src":"ioc","id":"pcha2","name":"Puerto Chacabuco","country":"CL","lat":-45.467,"lon":-72.82,"radio":{"name":"Radio Las Nieves","url":"https://audio2.tustreaming.cl:10987/stream","kind":"mp3","dist_km":12,"home":"http://www.rln.cl/","genre":"news & talk"}},{"src":"ioc","id":"pwil","name":"Puerto Williams","country":"CL","lat":-54.933,"lon":-67.608,"radio":{"name":"La Radio de la Gente LU12 AM 680 Rio Gallegos","url":"https://sa.mp3.icecast.magma.edge-access.net/LOA_LaOpinionAustral","kind":"mp3","dist_km":383,"home":"https://lu12.com.ar/","genre":"news & talk"}},{"src":"ioc","id":"pwil2","name":"Puerto Williams","country":"CL","lat":-54.933,"lon":-67.608,"radio":{"name":"La Radio de la Gente LU12 AM 680 Rio Gallegos","url":"https://sa.mp3.icecast.magma.edge-access.net/LOA_LaOpinionAustral","kind":"mp3","dist_km":383,"home":"https://lu12.com.ar/","genre":"news & talk"}},{"src":"ioc","id":"ptar","name":"Punta Arenas","country":"CL","lat":-53.124,"lon":-70.862,"radio":{"name":"La Radio de la Gente LU12 AM 680 Rio Gallegos","url":"https://sa.mp3.icecast.magma.edge-access.net/LOA_LaOpinionAustral","kind":"mp3","dist_km":201,"home":"https://lu12.com.ar/","genre":"news & talk"}},{"src":"ioc","id":"ptar2","name":"Punta Arenas","country":"CL","lat":-53.124,"lon":-70.862,"radio":{"name":"La Radio de la Gente LU12 AM 680 Rio Gallegos","url":"https://sa.mp3.icecast.magma.edge-access.net/LOA_LaOpinionAustral","kind":"mp3","dist_km":201,"home":"https://lu12.com.ar/","genre":"news & talk"}},{"src":"ioc","id":"ptch","name":"Punta de Choros","country":"CL","lat":-29.246,"lon":-71.469,"radio":{"name":"FM Oyeme","url":"https://sonic.portalfoxmix.club/8128/stream","kind":"mp3","dist_km":101,"home":"https://fmoyeme.cl/","genre":"news & talk"}},{"src":"ioc","id":"quel","name":"Queule","country":"CL","lat":-39.398,"lon":-73.215,"radio":{"name":"Universal Pitrufquen Chile","url":"https://s02.azuracast.cl/listen/radio_universal/universal","kind":"mp3","dist_km":67,"home":"https://www.radiouniversal.cl/","genre":"local radio"}},{"src":"ioc","id":"quel2","name":"Queule","country":"CL","lat":-39.398,"lon":-73.215,"radio":{"name":"Universal Pitrufquen Chile","url":"https://s02.azuracast.cl/listen/radio_universal/universal","kind":"mp3","dist_km":67,"home":"https://www.radiouniversal.cl/","genre":"local radio"}},{"src":"ioc","id":"qtro","name":"Quintero","country":"CL","lat":-32.775,"lon":-71.525,"radio":{"name":"Ritoque FM","url":"https://archi-us.digitalproserver.com/ritoquefm_aac","kind":"mp3","dist_km":31,"home":"https://ritoquefm.cl/","genre":"rock & alternative"}},{"src":"ioc","id":"qtro2","name":"Quintero","country":"CL","lat":-32.775,"lon":-71.525,"radio":{"name":"Ritoque FM","url":"https://archi-us.digitalproserver.com/ritoquefm_aac","kind":"mp3","dist_km":31,"home":"https://ritoquefm.cl/","genre":"rock & alternative"}},{"src":"ioc","id":"quir","name":"Quiriquina","country":"CL","lat":-36.636,"lon":-73.057,"radio":{"name":"Venus Radio Fm Chile","url":"https://streaming.audiplay.cl/listen/venus_radio_fm_chile/radio.mp3","kind":"mp3","dist_km":53,"home":"https://www.venusradiofm.cl/","genre":"pop & hits"}},{"src":"ioc","id":"quir2","name":"Quiriquina","country":"CL","lat":-36.636,"lon":-73.057,"radio":{"name":"Venus Radio Fm Chile","url":"https://streaming.audiplay.cl/listen/venus_radio_fm_chile/radio.mp3","kind":"mp3","dist_km":53,"home":"https://www.venusradiofm.cl/","genre":"pop & hits"}},{"src":"ioc","id":"sano","name":"San Antonio","country":"CL","lat":-33.582,"lon":-71.618,"radio":{"name":"Ritoque FM","url":"https://archi-us.digitalproserver.com/ritoquefm_aac","kind":"mp3","dist_km":60,"home":"https://ritoquefm.cl/","genre":"rock & alternative"}},{"src":"ioc","id":"sanf","name":"San Felix","country":"CL","lat":-26.292,"lon":-80.109,"radio":{"name":"FM Oyeme","url":"https://sonic.portalfoxmix.club/8128/stream","kind":"mp3","dist_km":956,"home":"https://fmoyeme.cl/","genre":"news & talk"}},{"src":"ioc","id":"sanf3","name":"San Felix","country":"CL","lat":-26.292,"lon":-80.109,"radio":{"name":"FM Oyeme","url":"https://sonic.portalfoxmix.club/8128/stream","kind":"mp3","dist_km":956,"home":"https://fmoyeme.cl/","genre":"news & talk"}},{"src":"ioc","id":"talc","name":"Talcahuano","country":"CL","lat":-36.701,"lon":-73.106,"radio":{"name":"Venus Radio Fm Chile","url":"https://streaming.audiplay.cl/listen/venus_radio_fm_chile/radio.mp3","kind":"mp3","dist_km":45,"home":"https://www.venusradiofm.cl/","genre":"pop & hits"}},{"src":"ioc","id":"talc2","name":"Talcahuano","country":"CL","lat":-36.701,"lon":-73.106,"radio":{"name":"Venus Radio Fm Chile","url":"https://streaming.audiplay.cl/listen/venus_radio_fm_chile/radio.mp3","kind":"mp3","dist_km":45,"home":"https://www.venusradiofm.cl/","genre":"pop & hits"}},{"src":"ioc","id":"talt","name":"Taltal","country":"CL","lat":-25.407,"lon":-70.49,"radio":{"name":"CLUB DANCE CHILE","url":"https://stream.clubdance.cl/","kind":"aac","dist_km":218,"home":"https://clubdance.cl/","genre":"dance & electronic"}},{"src":"ioc","id":"talt2","name":"Taltal","country":"CL","lat":-25.407,"lon":-70.49,"radio":{"name":"CLUB DANCE CHILE","url":"https://stream.clubdance.cl/","kind":"aac","dist_km":218,"home":"https://clubdance.cl/","genre":"dance & electronic"}},{"src":"ioc","id":"toco","name":"Tocopilla","country":"CL","lat":-22.094,"lon":-70.212,"radio":{"name":"Raxies FM","url":"https://stream.zeno.fm/annpmyskb4jtv","kind":"aac","dist_km":207,"home":"https://raxiesfm.neocities.org/","genre":"news & talk"}},{"src":"ioc","id":"toco2","name":"Tocopilla","country":"CL","lat":-22.094,"lon":-70.212,"radio":{"name":"Raxies FM","url":"https://stream.zeno.fm/annpmyskb4jtv","kind":"aac","dist_km":207,"home":"https://raxiesfm.neocities.org/","genre":"news & talk"}},{"src":"ioc","id":"valp","name":"Valparaiso","country":"CL","lat":-33.028,"lon":-71.628,"radio":{"name":"Ritoque FM","url":"https://archi-us.digitalproserver.com/ritoquefm_aac","kind":"mp3","dist_km":2,"home":"https://ritoquefm.cl/","genre":"rock & alternative"}},{"src":"ioc","id":"valp2","name":"Valparaiso","country":"CL","lat":-33.028,"lon":-71.628,"radio":{"name":"Ritoque FM","url":"https://archi-us.digitalproserver.com/ritoquefm_aac","kind":"mp3","dist_km":2,"home":"https://ritoquefm.cl/","genre":"rock & alternative"}},{"src":"ioc","id":"qing","name":"Qinglan","country":"CN","lat":19.57,"lon":110.82,"radio":{"name":"茂名交通广播","url":"https://lhttp.qingting.fm/live/20211574/64k.mp3","kind":"mp3","dist_km":233,"home":"http://www.mmstw.com/","genre":"local radio"}},{"src":"ioc","id":"shen","name":"Shenzhen","country":"CN","lat":22.47,"lon":113.88,"radio":{"name":"广东珠江经济台","url":"https://lhttp.qtfm.cn/live/1259/64k.mp3","kind":"mp3","dist_km":99,"home":"https://m.gdtv.cn/","genre":"local radio"}},{"src":"ioc","id":"zhap","name":"Zhapo","country":"CN","lat":21.58,"lon":111.82,"radio":{"name":"茂名交通广播","url":"https://lhttp.qingting.fm/live/20211574/64k.mp3","kind":"mp3","dist_km":93,"home":"http://www.mmstw.com/","genre":"local radio"}},{"src":"ioc","id":"buve2","name":"Buenaventura","country":"CO","lat":3.891,"lon":-77.081,"radio":{"name":"LA X 96.5 Cali","url":"https://onlineradiobox.com/json/co/lax/play?platform=web","kind":"mp3","dist_km":78,"home":"https://www.laxcali.com/","genre":"rock & alternative"}},{"src":"ioc","id":"buve3","name":"Buenaventura, Maritime signalling pier","country":"CO","lat":3.888,"lon":-77.044,"radio":{"name":"LA X 96.5 Cali","url":"https://onlineradiobox.com/json/co/lax/play?platform=web","kind":"mp3","dist_km":75,"home":"https://www.laxcali.com/","genre":"rock & alternative"}},{"src":"ioc","id":"cart","name":"Cartagena","country":"CO","lat":10.391,"lon":-75.537,"radio":{"name":"La Voz Del Caribe","url":"https://streaming.radiosenlinea.com.ar:10886/stream","kind":"aac","dist_km":100,"home":"https://lavozdelcaribe.com.co/","genre":"local radio"}},{"src":"ioc","id":"ptob","name":"Puerto Bolivar","country":"CO","lat":12.256,"lon":-71.972,"radio":{"name":"La Voz Del Caribe","url":"https://streaming.radiosenlinea.com.ar:10886/stream","kind":"aac","dist_km":342,"home":"https://lavozdelcaribe.com.co/","genre":"local radio"}},{"src":"ioc","id":"Quit","name":"Quitasueño","country":"CO","lat":14.155,"lon":-81.164,"radio":{"name":"Tiquicia Rock","url":"https://usa19.fastcast4u.com:5860/;?type=http&nocache=1690470873","kind":"mp3","dist_km":554,"home":"https://tiquiciarock.com/","genre":"rock & alternative"}},{"src":"ioc","id":"sana","name":"San Andres","country":"CO","lat":12.569,"lon":-81.701,"radio":{"name":"Tiquicia Rock","url":"https://usa19.fastcast4u.com:5860/;?type=http&nocache=1690470873","kind":"mp3","dist_km":380,"home":"https://tiquiciarock.com/","genre":"rock & alternative"}},{"src":"ioc","id":"sapz2","name":"Sapzurro","country":"CO","lat":8.66,"lon":-77.365,"radio":{"name":"Omega Stereo","url":"https://www.streaming507.net:8048/stream","kind":"aac","dist_km":240,"home":"https://www.omegastereo.com/","genre":"news & talk"}},{"src":"ioc","id":"tumc2","name":"Tumaco","country":"CO","lat":1.82,"lon":-78.729,"radio":{"name":"Radio Viva Fenix Ipiales (HJB29, 89.1 MHz FM)","url":"https://radiolatina.info/8170/stream","kind":"mp3","dist_km":164,"home":"https://www.radiovivafenix.com/891/","genre":"news & talk"}},{"src":"ioc","id":"cocos","name":"Cocos Island","country":"CR","lat":5.556,"lon":-87.048,"radio":{"name":"Radio Nosara","url":"https://sonicpanel.zonaradio.net/8038/stream","kind":"mp3","dist_km":514,"home":"https://www.radiotvnosara.online/","genre":"world & culture"}},{"src":"ioc","id":"cuaj","name":"Cuajiniquil","country":"CR","lat":10.952,"lon":-85.71,"radio":{"name":"Rock FM 105.5","url":"https://securestream.us/radio/8050/radio.mp3","kind":"mp3","dist_km":146,"home":"https://rockfm.com.ni/","genre":"rock & alternative"}},{"src":"ioc","id":"flam","name":"Flamingo Marina","country":"CR","lat":10.441,"lon":-85.789,"radio":{"name":"Radio Nosara","url":"https://sonicpanel.zonaradio.net/8038/stream","kind":"mp3","dist_km":55,"home":"https://www.radiotvnosara.online/","genre":"world & culture"}},{"src":"ioc","id":"golf","name":"Golfito","country":"CR","lat":8.636,"lon":-83.167,"radio":{"name":"Dabar","url":"https://a1.asurahosting.com:8720/radio.mp3","kind":"mp3","dist_km":102,"home":"https://dabarradio.org/","genre":"local radio"}},{"src":"ioc","id":"limon","name":"Limon","country":"CR","lat":9.989,"lon":-83.02,"radio":{"name":"Radio Mil Recuerdos Stereo","url":"https://sechin.grupocentroserver.com/radio/8060/radio.mp3","kind":"mp3","dist_km":119,"home":"https://sechin.grupocentroserver.com/public/radio_mil_recuerdos_costa_rica","genre":"local radio"}},{"src":"ioc","id":"punt","name":"Puntarenas","country":"CR","lat":9.972,"lon":-84.831,"radio":{"name":"Radio Mil Recuerdos Stereo","url":"https://sechin.grupocentroserver.com/radio/8060/radio.mp3","kind":"mp3","dist_km":82,"home":"https://sechin.grupocentroserver.com/public/radio_mil_recuerdos_costa_rica","genre":"local radio"}},{"src":"ioc","id":"quepo","name":"Quepos","country":"CR","lat":9.425,"lon":-84.17,"radio":{"name":"Radio Mil Recuerdos Stereo","url":"https://sechin.grupocentroserver.com/radio/8060/radio.mp3","kind":"mp3","dist_km":46,"home":"https://sechin.grupocentroserver.com/public/radio_mil_recuerdos_costa_rica","genre":"local radio"}},{"src":"ioc","id":"bull","name":"Bullen Bay","country":"CUW","lat":12.187,"lon":-69.02,"radio":{"name":"Radio Transmundial Bonaire 800 Khz","url":"https://cdn.instream.audio/:9050/stream","kind":"mp3","dist_km":83,"home":"https://www.twr360.org/","genre":"religious"}},{"src":"ioc","id":"larn3","name":"Larnaka","country":"CY","lat":34.928,"lon":33.645,"radio":{"name":"MixFM Cyprus","url":"https://link.radiojar.com/c27wx6pdh8vtv","kind":"mp3","dist_km":43,"home":"https://www.mixfmradio.com/","genre":"rock & alternative"}},{"src":"ioc","id":"leme","name":"Limassol","country":"CY","lat":34.669,"lon":33.042,"radio":{"name":"MixFM Cyprus","url":"https://link.radiojar.com/c27wx6pdh8vtv","kind":"mp3","dist_km":45,"home":"https://www.mixfmradio.com/","genre":"rock & alternative"}},{"src":"ioc","id":"pafo","name":"Pafos","country":"CY","lat":34.755,"lon":32.408,"radio":{"name":"MixFM Cyprus","url":"https://link.radiojar.com/c27wx6pdh8vtv","kind":"mp3","dist_km":79,"home":"https://www.mixfmradio.com/","genre":"rock & alternative"}},{"src":"ioc","id":"para1","name":"Paralimni","country":"CY","lat":35.038,"lon":34.036,"radio":{"name":"FEELGOOD.FM","url":"https://radio.feelgood.fm/mp3","kind":"mp3","dist_km":4,"home":"https://feelgood.fm/","genre":"local radio"}},{"src":"ioc","id":"pomo","name":"Pomos","country":"CY","lat":35.175,"lon":32.556,"radio":{"name":"MixFM Cyprus","url":"https://link.radiojar.com/c27wx6pdh8vtv","kind":"mp3","dist_km":60,"home":"https://www.mixfmradio.com/","genre":"rock & alternative"}},{"src":"ioc","id":"bork","name":"Borkum Fischerbalje","country":"DEU","lat":53.557,"lon":6.749,"radio":{"name":"Radio Ostfriesland Bürgerradio","url":"https://live.radio-ostfriesland.de/ostfriesland.mp3","kind":"mp3","dist_km":37,"home":"https://ww2.radio-ostfriesland.de/","genre":"local radio"}},{"src":"ioc","id":"cuxh","name":"Cuxhaven","country":"DEU","lat":53.868,"lon":8.717,"radio":{"name":"Radio WNK","url":"https://stream.laut.fm/radio-wnk","kind":"mp3","dist_km":20,"home":"https://radio-wnk.de/","genre":"jazz & blues"}},{"src":"ioc","id":"helg","name":"Helgoland Binnenhafen","country":"DEU","lat":54.176,"lon":7.891,"radio":{"name":"Radio Ostfriesland Bürgerradio","url":"https://live.radio-ostfriesland.de/ostfriesland.mp3","kind":"mp3","dist_km":100,"home":"https://ww2.radio-ostfriesland.de/","genre":"local radio"}},{"src":"ioc","id":"horn","name":"Hörnum","country":"DEU","lat":54.758,"lon":8.297,"radio":{"name":"Inselradio Föhr","url":"https://s10.streamingcloud.online:13192/stream","kind":"mp3","dist_km":15,"home":"https://www.insel-radio-foehr.de/radio-empfangen/?qtajax=true","genre":"local radio"}},{"src":"ioc","id":"kiel","name":"LT Kiel","country":"DEU","lat":54.5,"lon":10.275,"radio":{"name":"90s90s Rave","url":"https://regiocast.streamabc.net/regc-90s90srave-mp3-192-2687569","kind":"mp3","dist_km":22,"home":"https://www.90s90s.de/radios/rave","genre":"oldies & gold"}},{"src":"ioc","id":"sass","name":"Sassnitz","country":"DEU","lat":54.511,"lon":13.643,"radio":{"name":"80s80 Summerhits","url":"https://streams.80s80s.de/summerhits/mp3-192/streams.80s80s.de/","kind":"mp3","dist_km":109,"home":"https://www.80s80s.de/#","genre":"oldies & gold"}},{"src":"ioc","id":"warn","name":"Warnemünde","country":"DEU","lat":54.17,"lon":12.103,"radio":{"name":"80s80 Summerhits","url":"https://streams.80s80s.de/summerhits/mp3-192/streams.80s80s.de/","kind":"mp3","dist_km":9,"home":"https://www.80s80s.de/#","genre":"oldies & gold"}},{"src":"ioc","id":"aarh","name":"Aarhus","country":"DK","lat":56.15,"lon":10.22,"radio":{"name":"Radio ABC","url":"https://radioserver.dk/abc","kind":"mp3","dist_km":36,"home":"https://radioabc.dk/","genre":"local radio"}},{"src":"ioc","id":"esbj","name":"Esbjerg","country":"DK","lat":55.46,"lon":8.44,"radio":{"name":"Esbjerg Classic FM","url":"https://webradio.classicfm.dk/classicvejle","kind":"mp3","dist_km":1,"home":"https://classicfm.dk/","genre":"local radio"}},{"src":"ioc","id":"fred","name":"Fredericia","country":"DK","lat":55.56,"lon":9.75,"radio":{"name":"Radio ABC","url":"https://radioserver.dk/abc","kind":"mp3","dist_km":101,"home":"https://radioabc.dk/","genre":"local radio"}},{"src":"ioc","id":"freh","name":"Frederikshavn","country":"DK","lat":57.44,"lon":10.55,"radio":{"name":"Bandit Metal","url":"https://wr03-ice.stream.khz.se/wr03_mp3","kind":"mp3","dist_km":91,"home":"https://www.viaplayradio.se/banditmetal/","genre":"rock & alternative"}},{"src":"ioc","id":"fyns","name":"Fynshav","country":"DK","lat":54.99,"lon":9.99,"radio":{"name":"90s90s Rave","url":"https://regiocast.streamabc.net/regc-90s90srave-mp3-192-2687569","kind":"mp3","dist_km":75,"home":"https://www.90s90s.de/radios/rave","genre":"oldies & gold"}},{"src":"ioc","id":"geds","name":"Gedser","country":"DK","lat":54.57,"lon":11.93,"radio":{"name":"80s80 Summerhits","url":"https://streams.80s80s.de/summerhits/mp3-192/streams.80s80s.de/","kind":"mp3","dist_km":55,"home":"https://www.80s80s.de/#","genre":"oldies & gold"}},{"src":"ioc","id":"hanst","name":"Hanstholm","country":"DK","lat":57.12,"lon":8.6,"radio":{"name":"80's Hits","url":"https://live-bauerdk.sharp-stream.com/DK_HQ_RP04.aac","kind":"aac","dist_km":100,"home":"https://radiostationer.dk/187-80-s-hits.html","genre":"pop & hits"}},{"src":"ioc","id":"hirt","name":"Hirtshals","country":"DK","lat":57.6,"lon":9.96,"radio":{"name":"Bandit Metal","url":"https://wr03-ice.stream.khz.se/wr03_mp3","kind":"mp3","dist_km":122,"home":"https://www.viaplayradio.se/banditmetal/","genre":"rock & alternative"}},{"src":"ioc","id":"hornb","name":"Hornbaek","country":"DK","lat":56.09,"lon":12.46,"radio":{"name":"Retro Radio","url":"https://tx-2.retro-radio.dk/TX-2","kind":"aac","dist_km":17,"home":"https://retro-radio.dk/","genre":"oldies & gold"}},{"src":"ioc","id":"kobe","name":"Kobenhavn","country":"DK","lat":55.69,"lon":12.6,"radio":{"name":"Sveiges Radio - P4 Malmöhus","url":"https://sverigesradio.se/topsy/direkt/207-hi.mp3","kind":"mp3","dist_km":28,"home":"https://sverigesradio.se/malmohus","genre":"local radio"}},{"src":"ioc","id":"korso","name":"Korsor","country":"DK","lat":55.33,"lon":11.14,"radio":{"name":"Danmarks Radio P2","url":"https://live-icy.dr.dk/A/A27L.mp3","kind":"mp3","dist_km":47,"home":"https://www.dr.dk/lyd/p2","genre":"local radio"}},{"src":"ioc","id":"rodb","name":"Rodby","country":"DK","lat":54.66,"lon":11.35,"radio":{"name":"80s80 Summerhits","url":"https://streams.80s80s.de/summerhits/mp3-192/streams.80s80s.de/","kind":"mp3","dist_km":81,"home":"https://www.80s80s.de/#","genre":"oldies & gold"}},{"src":"ioc","id":"tejn","name":"Tejn","country":"DK","lat":55.25,"lon":14.84,"radio":{"name":"Sveiges Radio - P4 Malmöhus","url":"https://sverigesradio.se/topsy/direkt/207-hi.mp3","kind":"mp3","dist_km":121,"home":"https://sverigesradio.se/malmohus","genre":"local radio"}},{"src":"ioc","id":"ptmd2","name":"Portsmouth, Dominica","country":"DO","lat":15.577,"lon":-61.458,"radio":{"name":"En Ba Mango","url":"https://s10.myradiostream.com/:4212/listen.mp3","kind":"mp3","dist_km":40,"home":"https://www.facebook.com/oobinmmani/","genre":"local radio"}},{"src":"ioc","id":"rose","name":"Roseau","country":"DO","lat":15.314,"lon":-61.389,"radio":{"name":"En Ba Mango","url":"https://s10.myradiostream.com/:4212/listen.mp3","kind":"mp3","dist_km":11,"home":"https://www.facebook.com/oobinmmani/","genre":"local radio"}},{"src":"ioc","id":"bcar","name":"Bahía de Caráquez","country":"EC","lat":-0.607,"lon":-80.423,"radio":{"name":"Radio Ultimito Mix","url":"https://usa4.fastcast4u.com/proxy/rwrw1?mp=/1","kind":"mp3","dist_km":50,"home":"https://radioultimitomixec.blogspot.com/","genre":"rock & alternative"}},{"src":"ioc","id":"balt","name":"Baltra,Galapagos","country":"EC","lat":-0.433,"lon":-90.283,"radio":{"name":"BELLA MÚSICA 106.7 (Tapachula) - 106.7 FM - XHTPC-FM - Valanci Media Group - Tapachula, Chiapas","url":"https://stream.zeno.fm/scdv0t33gd0uv","kind":"aac","dist_km":1719,"home":"https://bellamusicatapachula.com/","genre":"world & culture"}},{"src":"ioc","id":"esme","name":"Esmeraldas","country":"EC","lat":0.991,"lon":-79.647,"radio":{"name":"Radio Canela Pichincha","url":"https://canelaradio.makrodigital.com:9280/stream","kind":"mp3","dist_km":184,"home":"https://web.canelaradio.com/","genre":"local radio"}},{"src":"ioc","id":"gyer","name":"Guayaquil - Río Guayas","country":"EC","lat":-2.195,"lon":-79.88,"radio":{"name":"Radio Canela Guayas","url":"https://canelaradio.makrodigital.com/stream/canelaradioguayaquil","kind":"aac","dist_km":4,"home":"https://web.canelaradio.com/","genre":"rock & alternative"}},{"src":"ioc","id":"lali","name":"La Libertad","country":"EC","lat":-2.218,"lon":-80.906,"radio":{"name":"Radio Canela Guayas","url":"https://canelaradio.makrodigital.com/stream/canelaradioguayaquil","kind":"aac","dist_km":114,"home":"https://web.canelaradio.com/","genre":"rock & alternative"}},{"src":"ioc","id":"patu","name":"Puerto Atún - Manta","country":"EC","lat":-0.926,"lon":-80.666,"radio":{"name":"Radio Ultimito Mix","url":"https://usa4.fastcast4u.com/proxy/rwrw1?mp=/1","kind":"mp3","dist_km":6,"home":"https://radioultimitomixec.blogspot.com/","genre":"rock & alternative"}},{"src":"ioc","id":"pbol","name":"Puerto Bolívar","country":"EC","lat":-3.259,"lon":-80.002,"radio":{"name":"Radio Canela Guayas","url":"https://canelaradio.makrodigital.com/stream/canelaradioguayaquil","kind":"aac","dist_km":123,"home":"https://web.canelaradio.com/","genre":"rock & alternative"}},{"src":"ioc","id":"plop","name":"Puerto López","country":"EC","lat":-1.561,"lon":-80.817,"radio":{"name":"Radio Ultimito Mix","url":"https://usa4.fastcast4u.com/proxy/rwrw1?mp=/1","kind":"mp3","dist_km":68,"home":"https://radioultimitomixec.blogspot.com/","genre":"rock & alternative"}},{"src":"ioc","id":"puna","name":"Puná","country":"EC","lat":-2.735,"lon":-79.912,"radio":{"name":"Radio Canela Guayas","url":"https://canelaradio.makrodigital.com/stream/canelaradioguayaquil","kind":"aac","dist_km":64,"home":"https://web.canelaradio.com/","genre":"rock & alternative"}},{"src":"ioc","id":"slor","name":"San Lorenzo","country":"EC","lat":1.293,"lon":-78.836,"radio":{"name":"Radio Canela Pichincha","url":"https://canelaradio.makrodigital.com:9280/stream","kind":"mp3","dist_km":171,"home":"https://web.canelaradio.com/","genre":"local radio"}},{"src":"ioc","id":"sant","name":"SantaCruz,Galapagos","country":"EC","lat":-0.752,"lon":-90.307,"radio":{"name":"BELLA MÚSICA 106.7 (Tapachula) - 106.7 FM - XHTPC-FM - Valanci Media Group - Tapachula, Chiapas","url":"https://stream.zeno.fm/scdv0t33gd0uv","kind":"aac","dist_km":1754,"home":"https://bellamusicatapachula.com/","genre":"world & culture"}},{"src":"ioc","id":"alex2","name":"Alexandria","country":"EG","lat":31.212,"lon":29.885,"radio":{"name":"إذاعة القرآن الكريم (القاهرة)","url":"https://stream.radiojar.com/8s5u5tpdtwzuv","kind":"mp3","dist_km":189,"home":"https://www.maspero.eg/stream/7","genre":"local radio"}},{"src":"ioc","id":"marn1","name":"Marina El Alamein","country":"EG","lat":30.844,"lon":28.977,"radio":{"name":"إذاعة القرآن الكريم (القاهرة)","url":"https://stream.radiojar.com/8s5u5tpdtwzuv","kind":"mp3","dist_km":239,"home":"https://www.maspero.eg/stream/7","genre":"local radio"}},{"src":"ioc","id":"matr","name":"Marsa Matruh","country":"EG","lat":31.37,"lon":27.204,"radio":{"name":"إذاعة القرآن الكريم (القاهرة)","url":"https://stream.radiojar.com/8s5u5tpdtwzuv","kind":"mp3","dist_km":417,"home":"https://www.maspero.eg/stream/7","genre":"local radio"}},{"src":"ioc","id":"alex3","name":"alexandria","country":"EG","lat":31.212,"lon":29.885,"radio":{"name":"إذاعة القرآن الكريم (القاهرة)","url":"https://stream.radiojar.com/8s5u5tpdtwzuv","kind":"mp3","dist_km":189,"home":"https://www.maspero.eg/stream/7","genre":"local radio"}},{"src":"ioc","id":"cor2","name":"Acoruna","country":"ES","lat":43.357,"lon":-8.389,"radio":{"name":"COPE A CORUÑA","url":"https://wecast-bl01.flumotion.com/copesedes/lacoruna.mp3","kind":"mp3","dist_km":2,"home":"https://www.cope.es/emisoras/galicia/a-coruna-provincia/a-coruna","genre":"local radio"}},{"src":"ioc","id":"alcu","name":"Alcudia","country":"ES","lat":39.835,"lon":3.139,"radio":{"name":"Perfect Deep House","url":"https://stream.radiojar.com/asngk2sg798uv?1659885393","kind":"mp3","dist_km":49,"home":"https://perfect-radio.com/perfect-deephouse.html","genre":"dance & electronic"}},{"src":"ioc","id":"alge","name":"Algeciras","country":"ES","lat":36.177,"lon":-5.398,"radio":{"name":"BeachGrooves Radio","url":"https://stream.beachgrooves.com:9000/stream.mp3","kind":"mp3","dist_km":59,"home":"http://www.beachgrooves.com/","genre":"dance & electronic"}},{"src":"ioc","id":"alac1","name":"Alicante1","country":"ES","lat":38.338,"lon":-0.478,"radio":{"name":"Radio 5 Alicante","url":"https://f141.rndfnk.com/star/crtve/rne5/ali/aac/128/stream.aac?cid=01GEPV1RQWM6FBR5D3JWNZ4NAT&sid=2doJPSzrCWJNnhkcMyUScdD9XE5&token=ccUK_6DiP-vqS9k6R8cqcDpJBqPgeK8FLtD4qc1aDBU&tvf=44FI4I6XvRdmMTQxLnJuZGZuay5jb20","kind":"aac","dist_km":1,"home":"https://www.rtve.es/radioplayer/emisoras/rne5_alicante/","genre":"news & talk"}},{"src":"ioc","id":"alac2","name":"Alicante2","country":"ES","lat":38.339,"lon":-0.481,"radio":{"name":"Radio 5 Alicante","url":"https://f141.rndfnk.com/star/crtve/rne5/ali/aac/128/stream.aac?cid=01GEPV1RQWM6FBR5D3JWNZ4NAT&sid=2doJPSzrCWJNnhkcMyUScdD9XE5&token=ccUK_6DiP-vqS9k6R8cqcDpJBqPgeK8FLtD4qc1aDBU&tvf=44FI4I6XvRdmMTQxLnJuZGZuay5jb20","kind":"aac","dist_km":1,"home":"https://www.rtve.es/radioplayer/emisoras/rne5_alicante/","genre":"news & talk"}},{"src":"ioc","id":"alme","name":"Almeria","country":"ES","lat":36.83,"lon":-2.478,"radio":{"name":"Onda CERO ALMERIA 1341 OM","url":"https://atres-live.ondacero.es/live/delegaciones/oc/almeria/bitrate_1.m3u8","kind":"hls","dist_km":2,"home":"https://www.ondacero.es/emisoras/andalucia/almeria/","genre":"news & talk"}},{"src":"ioc","id":"alme2","name":"Almería","country":"ES","lat":36.832,"lon":-2.485,"radio":{"name":"Onda CERO ALMERIA 1341 OM","url":"https://atres-live.ondacero.es/live/delegaciones/oc/almeria/bitrate_1.m3u8","kind":"hls","dist_km":3,"home":"https://www.ondacero.es/emisoras/andalucia/almeria/","genre":"news & talk"}},{"src":"ioc","id":"arre","name":"Arrecife","country":"ES","lat":28.972,"lon":-13.53,"radio":{"name":"Radio Atlantis Lanzarote","url":"https://atlantisfm.radionetz.de/atlantisfm.mp3","kind":"mp3","dist_km":15,"home":"https://atlantisfm.de/","genre":"local radio"}},{"src":"ioc","id":"barc","name":"Barcelona","country":"ES","lat":41.342,"lon":2.166,"radio":{"name":"RAC1","url":"https://playerservices.streamtheworld.com/api/livestream-redirect/RAC_1.mp3","kind":"mp3","dist_km":6,"home":"https://www.rac1.cat/","genre":"news & talk"}},{"src":"ioc","id":"bil3","name":"Bilbao3","country":"ES","lat":43.352,"lon":-3.045,"radio":{"name":"punk irratia","url":"https://punkirratia.net:8443/punk","kind":"mp3","dist_km":16,"home":"https://punkirratia.net/","genre":"rock & alternative"}},{"src":"ioc","id":"bon2","name":"Bonanza2","country":"ES","lat":36.802,"lon":-6.338,"radio":{"name":"Onda Cero Cádiz","url":"https://atres-live.ondacero.es/live/delegaciones/oc/cadiz/master.m3u8","kind":"hls","dist_km":30,"home":"https://www.ondacero.es/","genre":"news & talk"}},{"src":"ioc","id":"carb","name":"Carboneras","country":"ES","lat":36.974,"lon":-1.9,"radio":{"name":"Azul FM Murcia","url":"https://azura5.emisiononline.es:8000/azulfm986","kind":"mp3","dist_km":81,"home":"https://azulfm.com.es/","genre":"local radio"}},{"src":"ioc","id":"carg1","name":"Cartagena","country":"ES","lat":37.57,"lon":-0.98,"radio":{"name":"Revive FM","url":"https://radio.revivefm.es/stream","kind":"mp3","dist_km":42,"home":"https://revivefm.es/","genre":"local radio"}},{"src":"ioc","id":"hie2","name":"ElHierro","country":"ES","lat":27.784,"lon":-17.902,"radio":{"name":"Radio Europa","url":"https://server9.emitironline.com:19144/","kind":"mp3","dist_km":145,"home":"https://www.radioeuropa.fm/","genre":"pop & hits"}},{"src":"ioc","id":"fer1","name":"Ferrol1","country":"ES","lat":43.463,"lon":-8.326,"radio":{"name":"COPE A CORUÑA","url":"https://wecast-bl01.flumotion.com/copesedes/lacoruna.mp3","kind":"mp3","dist_km":12,"home":"https://www.cope.es/emisoras/galicia/a-coruna-provincia/a-coruna","genre":"local radio"}},{"src":"ioc","id":"fer2","name":"Ferrol2","country":"ES","lat":43.476,"lon":-8.249,"radio":{"name":"COPE A CORUÑA","url":"https://wecast-bl01.flumotion.com/copesedes/lacoruna.mp3","kind":"mp3","dist_km":17,"home":"https://www.cope.es/emisoras/galicia/a-coruna-provincia/a-coruna","genre":"local radio"}},{"src":"ioc","id":"form","name":"Formentera","country":"ES","lat":38.735,"lon":1.419,"radio":{"name":"Pure Ibiza Radio","url":"https://pureibizaradio.clubbingradios.com:9518/PureIbizaRadio","kind":"mp3","dist_km":20,"home":"https://www.pureibizaradio.com/","genre":"dance & electronic"}},{"src":"ioc","id":"fue2","name":"Fuerteventura","country":"ES","lat":28.493,"lon":-13.858,"radio":{"name":"Radio Atlantis Lanzarote","url":"https://atlantisfm.radionetz.de/atlantisfm.mp3","kind":"mp3","dist_km":53,"home":"https://atlantisfm.de/","genre":"local radio"}},{"src":"ioc","id":"gand","name":"Gandia","country":"ES","lat":38.995,"lon":-0.151,"radio":{"name":"Onda Cero Valencia","url":"https://atres-live.ondacero.es/live/delegaciones/oc/valencia/master.m3u8","kind":"hls","dist_km":57,"home":"https://www.ondacero.es/emisoras/comunidad-valenciana/valencia/","genre":"news & talk"}},{"src":"ioc","id":"gara1","name":"Garachico (Tenerife)","country":"ES","lat":28.373,"lon":-16.753,"radio":{"name":"Radio Europa","url":"https://server9.emitironline.com:19144/","kind":"mp3","dist_km":27,"home":"https://www.radioeuropa.fm/","genre":"pop & hits"}},{"src":"ioc","id":"gij2","name":"Gijon","country":"ES","lat":43.558,"lon":-5.698,"radio":{"name":"Sky.Net -Radiosky Manele","url":"https://stream.gestiondeservidor.com/8100/stream","kind":"mp3","dist_km":3,"home":"https://radiosky.net/","genre":"local radio"}},{"src":"ioc","id":"huel","name":"Huelva5","country":"ES","lat":37.132,"lon":-6.834,"radio":{"name":"Onda Cero Huelva","url":"https://atres-live.ondacero.es/live/delegaciones/oc/huelva/master.m3u8","kind":"hls","dist_km":17,"home":"https://ondacero.es/","genre":"news & talk"}},{"src":"ioc","id":"ibiz","name":"Ibiza2","country":"ES","lat":38.911,"lon":1.45,"radio":{"name":"Pure Ibiza Radio","url":"https://pureibizaradio.clubbingradios.com:9518/PureIbizaRadio","kind":"mp3","dist_km":2,"home":"https://www.pureibizaradio.com/","genre":"dance & electronic"}},{"src":"ioc","id":"lago","name":"LaGomera","country":"ES","lat":28.088,"lon":-17.108,"radio":{"name":"Radio Europa","url":"https://server9.emitironline.com:19144/","kind":"mp3","dist_km":61,"home":"https://www.radioeuropa.fm/","genre":"pop & hits"}},{"src":"ioc","id":"lapa","name":"LaPalma","country":"ES","lat":28.678,"lon":-17.768,"radio":{"name":"Radio Europa","url":"https://server9.emitironline.com:19144/","kind":"mp3","dist_km":131,"home":"https://www.radioeuropa.fm/","genre":"pop & hits"}},{"src":"ioc","id":"lang","name":"Langosteira","country":"ES","lat":43.347,"lon":-8.53,"radio":{"name":"COPE A CORUÑA","url":"https://wecast-bl01.flumotion.com/copesedes/lacoruna.mp3","kind":"mp3","dist_km":11,"home":"https://www.cope.es/emisoras/galicia/a-coruna-provincia/a-coruna","genre":"local radio"}},{"src":"ioc","id":"lasp","name":"LasPalmas2","country":"ES","lat":28.141,"lon":-15.412,"radio":{"name":"Cadena Ser - Las Palmas","url":"https://playerservices.streamtheworld.com/api/livestream-redirect/SER_LAS_PALMAS.mp3","kind":"mp3","dist_km":2,"home":"https://cadenaser.com/cadena-ser/programacion/","genre":"local radio"}},{"src":"ioc","id":"maho","name":"Mahon","country":"ES","lat":39.893,"lon":4.271,"radio":{"name":"Perfect Deep House","url":"https://stream.radiojar.com/asngk2sg798uv?1659885393","kind":"mp3","dist_km":142,"home":"https://perfect-radio.com/perfect-deephouse.html","genre":"dance & electronic"}},{"src":"ioc","id":"mari","name":"Marin","country":"ES","lat":42.406,"lon":-8.691,"radio":{"name":"Onda Cero Pontevedra","url":"https://atres-live.ondacero.es/live/delegaciones/oc/pontevedra/master.m3u8","kind":"hls","dist_km":5,"home":"https://www.ondacero.es/emisoras/galicia/pontevedra/directo/","genre":"news & talk"}},{"src":"ioc","id":"meli","name":"Melilla","country":"ES","lat":35.291,"lon":-2.929,"radio":{"name":"Costa Del Mar Dance","url":"https://radio4.cdm-radio.com:18000/stream-mp3-Dance","kind":"mp3","dist_km":207,"home":"https://onlineradiobox.com/es/costadelmardance/?lang=en","genre":"dance & electronic"}},{"src":"ioc","id":"motr","name":"Motril2","country":"ES","lat":36.72,"lon":-3.524,"radio":{"name":"Feel Good Radio Costa del Sol","url":"https://caster05.streampakket.com/proxy/8321/stream","kind":"mp3","dist_km":68,"home":"https://www.feelgoodradio.es/","genre":"local radio"}},{"src":"ioc","id":"palm","name":"PalmadeMallorca","country":"ES","lat":39.56,"lon":2.637,"radio":{"name":"Perfect Deep House","url":"https://stream.radiojar.com/asngk2sg798uv?1659885393","kind":"mp3","dist_km":5,"home":"https://perfect-radio.com/perfect-deephouse.html","genre":"dance & electronic"}},{"src":"ioc","id":"barc2","name":"Port of Barcelona","country":"ES","lat":41.363,"lon":2.187,"radio":{"name":"RAC1","url":"https://playerservices.streamtheworld.com/api/livestream-redirect/RAC_1.mp3","kind":"mp3","dist_km":5,"home":"https://www.rac1.cat/","genre":"news & talk"}},{"src":"ioc","id":"fuer2","name":"Puerto del Rosario, Fuerteventura","country":"ES","lat":28.498,"lon":-13.856,"radio":{"name":"Radio Atlantis Lanzarote","url":"https://atlantisfm.radionetz.de/atlantisfm.mp3","kind":"mp3","dist_km":53,"home":"https://atlantisfm.de/","genre":"local radio"}},{"src":"ioc","id":"sagu","name":"Sagunto","country":"ES","lat":39.634,"lon":-0.206,"radio":{"name":"Onda Cero Valencia","url":"https://atres-live.ondacero.es/live/delegaciones/oc/valencia/master.m3u8","kind":"hls","dist_km":23,"home":"https://www.ondacero.es/emisoras/comunidad-valenciana/valencia/","genre":"news & talk"}},{"src":"ioc","id":"san2","name":"Santander","country":"ES","lat":43.461,"lon":-3.791,"radio":{"name":"Radio Argayo","url":"https://radiobot.radioslibres.info/radio/8030/radio.ogg","kind":"mp3","dist_km":24,"home":"https://radioargayo.noblogs.org/","genre":"local radio"}},{"src":"ioc","id":"sev2","name":"Sevilla","country":"ES","lat":37.318,"lon":-6.008,"radio":{"name":"Canal Sur Radio Andalucía","url":"https://rtva-live-radio.flumotion.com/rtva/csr.mp3","kind":"mp3","dist_km":10,"home":"https://www.canalsur.es/radio_directo-2014.html?directo=player_csr","genre":"news & talk"}},{"src":"ioc","id":"tari","name":"Tarifa","country":"ES","lat":36.006,"lon":-5.604,"radio":{"name":"RTVCE","url":"https://5924d3ad0efcf.streamlock.net/ceutaradio/ceutaradiolive/playlist.m3u8","kind":"hls","dist_km":30,"home":"https://www.rtvce.es/","genre":"local radio"}},{"src":"ioc","id":"tarr","name":"Tarragona","country":"ES","lat":41.079,"lon":1.213,"radio":{"name":"Imagina Radio","url":"https://relay.stream.enacast-cloud.com:30286/imaginaradioHD.mp3","kind":"mp3","dist_km":65,"home":"https://www.imaginaradio.cat/","genre":"oldies & gold"}},{"src":"ioc","id":"tene","name":"Tenerife2","country":"ES","lat":28.477,"lon":-16.241,"radio":{"name":"Radio Europa","url":"https://server9.emitironline.com:19144/","kind":"mp3","dist_km":37,"home":"https://www.radioeuropa.fm/","genre":"pop & hits"}},{"src":"ioc","id":"vale","name":"Valencia","country":"ES","lat":39.442,"lon":-0.311,"radio":{"name":"Onda Cero Valencia","url":"https://atres-live.ondacero.es/live/delegaciones/oc/valencia/master.m3u8","kind":"hls","dist_km":7,"home":"https://www.ondacero.es/emisoras/comunidad-valenciana/valencia/","genre":"news & talk"}},{"src":"ioc","id":"vig2","name":"Vigo","country":"ES","lat":42.243,"lon":-8.726,"radio":{"name":"Onda Cero Pontevedra","url":"https://atres-live.ondacero.es/live/delegaciones/oc/pontevedra/master.m3u8","kind":"hls","dist_km":22,"home":"https://www.ondacero.es/emisoras/galicia/pontevedra/directo/","genre":"news & talk"}},{"src":"ioc","id":"vil2","name":"Villagarcia","country":"ES","lat":42.601,"lon":-8.77,"radio":{"name":"Onda Cero Pontevedra","url":"https://atres-live.ondacero.es/live/delegaciones/oc/pontevedra/master.m3u8","kind":"hls","dist_km":22,"home":"https://www.ondacero.es/emisoras/galicia/pontevedra/directo/","genre":"news & talk"}},{"src":"ioc","id":"levu","name":"Lautoka","country":"FJ","lat":-17.605,"lon":177.438,"radio":{"name":"Kalofiama 'O E 'Amanaki","url":"https://stream.zeno.fm/v4kaet5ab1ntv","kind":"mp3","dist_km":865,"home":"https://www.facebook.com/kalofiama.o.e.amanaki","genre":"religious"}},{"src":"ioc","id":"viti","name":"Suva Viti Levu","country":"FJ","lat":-18.134,"lon":178.424,"radio":{"name":"Kalofiama 'O E 'Amanaki","url":"https://stream.zeno.fm/v4kaet5ab1ntv","kind":"mp3","dist_km":745,"home":"https://www.facebook.com/kalofiama.o.e.amanaki","genre":"religious"}},{"src":"ioc","id":"ajac","name":"Ajaccio","country":"FR","lat":41.92,"lon":8.76,"radio":{"name":"Europa Radio Jazz HD","url":"https://audio-edge-kef8b.ams.s.radiomast.io/818607ce-8815-42fb-8dfc-344234a0ff83","kind":"aac","dist_km":235,"home":"https://www.europaradiojazz.org/","genre":"jazz & blues"}},{"src":"ioc","id":"ajac2","name":"Ajaccio2","country":"FR","lat":41.92,"lon":8.76,"radio":{"name":"Europa Radio Jazz HD","url":"https://audio-edge-kef8b.ams.s.radiomast.io/818607ce-8815-42fb-8dfc-344234a0ff83","kind":"aac","dist_km":235,"home":"https://www.europaradiojazz.org/","genre":"jazz & blues"}},{"src":"ioc","id":"arca","name":"Arcachon Eyrac","country":"FR","lat":44.665,"lon":-1.164,"radio":{"name":"Radio campus bordeaux","url":"https://live.radio-campus.org:8002/campus-bordeaux","kind":"mp3","dist_km":46,"home":"https://www.radiocampusbordeaux.fr/","genre":"jazz & blues"}},